[
  {
    "type": "node",
    "id": 58489979,
    "lat": 52.5098189,
    "lon": 13.4073729,
    "tags": {
      "addr:city": "Berlin",
      "addr:country": "DE",
      "addr:housenumber": "83",
      "addr:postcode": "10179",
      "addr:street": "Alte Jakobstraße",
      "addr:suburb": "Mitte",
      "brand": "Netto Marken-Discount AG & Co. KG",
      "name": "Netto Marken-Discount",
      "shop": "supermarket",
      "website": "http://netto-online.de/",
      "wheelchair": "no"
    }
  },
  {
    "type": "node",
    "id": 79418658,
    "lat": 52.5724174,
    "lon": 13.3085471,
    "tags": {
      "addr:city": "Berlin",
      "addr:country": "DE",
      "addr:housenumber": "2",
      "addr:postcode": "13403",
      "addr:street": "Quäkerstraße",
      "addr:suburb": "Reinickendorf",
      "name": "Edeka",
      "opening_hours": "Mo-Fr 08:00-20:00; Sa 08:00-16:00",
      "operator": "Edeka Nah und Gut Preuss",
      "phone": "+49 30 4123044",
      "shop": "supermarket",
      "wheelchair": "yes"
    }
  },
  {
    "type": "node",
    "id": 79422426,
    "lat": 52.5716761,
    "lon": 13.3124756,
    "tags": {
      "name": "Nahkauf",
      "opening_hours": "Mo-Fr 08:00-20:00, Sa 08:00-19:00",
      "shop": "supermarket",
      "wheelchair": "yes"
    }
  },
  {
    "type": "node",
    "id": 79428988,
    "lat": 52.5664033,
    "lon": 13.3169308,
    "tags": {
      "addr:city": "Berlin",
      "addr:housenumber": "100",
      "addr:postcode": "13405",
      "addr:street": "Scharnweberstraße",
      "name": "NP",
      "opening_hours": "Mo-Sa 07:00-21:00",
      "operator": "EDEKA",
      "phone": "+49 30 41199655",
      "shop": "supermarket",
      "wheelchair": "yes"
    }
  },
  {
    "type": "node",
    "id": 79438509,
    "lat": 52.5704861,
    "lon": 13.321144,
    "tags": {
      "layer": "2",
      "name": "Edeka",
      "opening_hours": "Mo-Sa 07:00-20:00",
      "shop": "supermarket",
      "wheelchair": "limited"
    }
  },
  {
    "type": "node",
    "id": 101003688,
    "lat": 52.4913971,
    "lon": 13.3228827,
    "tags": {
      "atm": "yes",
      "atm:operator": "ING-DiBa",
      "name": "Edeka",
      "operator": "...nah und gut",
      "shop": "supermarket",
      "type": "delicatessen",
      "website": "http://www.delikatessendiscounter.de/",
      "wheelchair": "yes"
    }
  },
  {
    "type": "node",
    "id": 139695101,
    "lat": 52.546158,
    "lon": 13.1429724,
    "tags": {
      "contact:phone": "+498004353361",
      "contact:website": "http://www.lidl.de/filialen/berlin-spandau/spandau-seegefelder-weg-391.html",
      "name": "Lidl",
      "opening_hours": "Mo-Sa 08:00-21:00",
      "shop": "supermarket",
      "wheelchair": "yes"
    }
  },
  {
    "type": "node",
    "id": 151015050,
    "lat": 52.5265407,
    "lon": 13.5403083,
    "tags": {
      "name": "Norma",
      "opening_hours": "Mo-Sa 08:00-20:00",
      "shop": "supermarket",
      "wheelchair": "yes",
      "wheelchair:description": "der Zugang liegt innerhalb der Springpfuhl-Passage, Zugang über eine Rampe, innerhalb von Norma ist es recht eng für Rolli-Fahrer"
    }
  },
  {
    "type": "node",
    "id": 172836943,
    "lat": 52.5526665,
    "lon": 13.3512701,
    "tags": {
      "addr:city": "Berlin",
      "addr:country": "DE",
      "addr:housenumber": "47",
      "addr:postcode": "13349",
      "addr:street": "Müllerstraße",
      "addr:suburb": "Wedding",
      "level": "1",
      "name": "Real",
      "opening_hours": "Mo-Fr 07:00-00:00; Sa 07:00-23:30",
      "shop": "supermarket",
      "wheelchair": "yes",
      "wheelchair:description": "Fahrstuhl vorhanden"
    }
  },
  {
    "type": "node",
    "id": 175685784,
    "lat": 52.5958262,
    "lon": 13.3335139,
    "tags": {
      "name": "Netto Marken-Discount",
      "opening_hours": "Mo-Sa 07:00-20:00",
      "shop": "supermarket",
      "wheelchair": "yes"
    }
  },
  {
    "type": "node",
    "id": 245261389,
    "lat": 52.5523111,
    "lon": 13.348147,
    "tags": {
      "addr:city": "Berlin",
      "addr:country": "DE",
      "addr:housenumber": "128",
      "addr:postcode": "13349",
      "addr:street": "Müllerstraße",
      "addr:suburb": "Wedding",
      "name": "ALDI",
      "operator": "ALDI Nord",
      "shop": "supermarket",
      "toilets:wheelchair": "no",
      "website": "http://www.aldi-nord.de",
      "wheelchair": "yes"
    }
  },
  {
    "type": "node",
    "id": 249675570,
    "lat": 52.5439135,
    "lon": 13.5486135,
    "tags": {
      "name": "Netto Marken-Discount",
      "shop": "supermarket",
      "wheelchair": "yes"
    }
  },
  {
    "type": "node",
    "id": 251340008,
    "lat": 52.4315072,
    "lon": 13.7147472,
    "tags": {
      "name": "Edeka",
      "opening_hours": "Mo-Sa 08:00-20:00",
      "shop": "supermarket",
      "wheelchair": "yes"
    }
  },
  {
    "type": "node",
    "id": 251595302,
    "lat": 52.565038,
    "lon": 13.3706441,
    "tags": {
      "addr:housenumber": "47-49",
      "addr:street": "Pankower Allee",
      "addr:suburb": "Reinickendorf",
      "name": "Penny",
      "opening_hours": "Mo-Sa 07:00-21:00",
      "shop": "supermarket",
      "wheelchair": "yes"
    }
  },
  {
    "type": "node",
    "id": 253256553,
    "lat": 52.5515059,
    "lon": 13.4550894,
    "tags": {
      "name": "NETTO",
      "opening_hours": "Mo-We,Sa 08:00-20:00, Th,Fr 08:00-21:00",
      "shop": "supermarket",
      "wheelchair": "yes"
    }
  },
  {
    "type": "node",
    "id": 253616491,
    "lat": 52.5077385,
    "lon": 13.4691219,
    "tags": {
      "addr:city": "Berlin",
      "addr:country": "DE",
      "addr:housenumber": "76-78",
      "addr:postcode": "10245",
      "addr:street": "Boxhagener Straße",
      "addr:suburb": "Friedrichshain",
      "contact:phone": "0800 4353361",
      "contact:website": "http://www.lidl.de/filialen/berlin-friedrichshain-kreuzberg/friedrichshain-boxhagener-str-76-78.html",
      "name": "Lidl",
      "opening_hours": "Mo-Sa 08:00-22:00; Su,PH off",
      "shop": "supermarket",
      "wheelchair": "yes"
    }
  },
  {
    "type": "node",
    "id": 253616655,
    "lat": 52.510061,
    "lon": 13.4709585,
    "tags": {
      "name": "Edeka",
      "opening_hours": "Mo-Sa 07:00-22:00",
      "operator": "Edeka",
      "shop": "supermarket",
      "wheelchair": "yes"
    }
  },
  {
    "type": "node",
    "id": 253999816,
    "lat": 52.4873144,
    "lon": 13.3570728,
    "tags": {
      "addr:city": "Berlin",
      "addr:country": "DE",
      "addr:housenumber": "16",
      "addr:postcode": "10827",
      "addr:street": "Hauptstraße",
      "addr:suburb": "Schöneberg",
      "name": "Öz-Gida",
      "shop": "supermarket",
      "wheelchair": "yes"
    }
  },
  {
    "type": "node",
    "id": 254862675,
    "lat": 52.4701156,
    "lon": 13.4621306,
    "tags": {
      "name": "Edeka",
      "shop": "supermarket",
      "wheelchair": "yes"
    }
  },
  {
    "type": "node",
    "id": 257704877,
    "lat": 52.5476038,
    "lon": 13.2100323,
    "tags": {
      "addr:city": "Berlin",
      "addr:housenumber": "30",
      "addr:postcode": "13585",
      "addr:street": "Neuendorfer Straße",
      "contact:phone": "0800 4353361",
      "contact:website": "http://www.lidl.de/filialen/berlin-spandau/spandau-neuendorfer-str-30.html",
      "name": "LIDL",
      "opening_hours": "Mo-Sa 07:00-21:00",
      "shop": "supermarket",
      "wheelchair": "yes"
    }
  },
  {
    "type": "node",
    "id": 259835062,
    "lat": 52.5428752,
    "lon": 13.1965568,
    "tags": {
      "addr:city": "Berlin",
      "addr:country": "DE",
      "addr:housenumber": "19",
      "addr:postcode": "13585",
      "addr:street": "Falkenseer Damm",
      "addr:suburb": "Spandau",
      "contact:phone": "0800 4353361",
      "contact:website": "http://www.lidl.de/filialen/berlin-spandau/spandau-falkenseer-damm-19.html",
      "name": "Lidl",
      "opening_hours": "Mo-Sa 08:00-21:00",
      "shop": "supermarket",
      "toilets:wheelchair": "yes",
      "wheelchair": "yes"
    }
  },
  {
    "type": "node",
    "id": 259855794,
    "lat": 52.5085368,
    "lon": 13.2716801,
    "tags": {
      "addr:city": "Berlin",
      "addr:country": "DE",
      "addr:housenumber": "7",
      "addr:postcode": "14052",
      "addr:street": "Theodor-Heuss-Platz",
      "addr:suburb": "Westend",
      "name": "Aldi",
      "opening_hours": "Mo-Sa 08:30-20:00",
      "operator": "ALDI Einkauf GmbH & Co. oHG",
      "shop": "supermarket",
      "website": "http://www.aldi-nord.de",
      "wheelchair": "yes"
    }
  },
  {
    "type": "node",
    "id": 261743904,
    "lat": 52.5276119,
    "lon": 13.3291604,
    "tags": {
      "addr:city": "Berlin",
      "addr:housenumber": "60",
      "addr:postcode": "10551",
      "addr:street": "Turmstraße",
      "contact:phone": "+49 30 3961614",
      "name": "Rewe",
      "opening_hours": "Mo-Sa 08:00-23:00",
      "operator": "Ramona Reiche oHG",
      "shop": "supermarket",
      "wheelchair": "yes"
    }
  },
  {
    "type": "node",
    "id": 262353263,
    "lat": 52.4574341,
    "lon": 13.5075164,
    "tags": {
      "addr:city": "Berlin",
      "addr:country": "DE",
      "addr:postcode": "12439",
      "addr:street": "Schnellerstraße",
      "level": "0",
      "name": "Kaufland",
      "opening_hours": "Mo-Sa 07:00-22:00",
      "shop": "supermarket",
      "wheelchair": "yes"
    }
  },
  {
    "type": "node",
    "id": 262355894,
    "lat": 52.515615,
    "lon": 13.4623106,
    "tags": {
      "addr:city": "Berlin",
      "addr:country": "DE",
      "addr:housenumber": "35 - 37",
      "addr:postcode": "10247",
      "addr:street": "Frankfurter Allee",
      "addr:suburb": "Friedrichshain",
      "contact:phone": "+49304279843",
      "contact:website": "http://www.edeka.de",
      "name": "Edeka",
      "opening_hours": "Mo-Fr 08:00-20:00, Sa 08:00-20:00",
      "shop": "supermarket",
      "wheelchair": "yes"
    }
  },
  {
    "type": "node",
    "id": 262363654,
    "lat": 52.5229186,
    "lon": 13.464488,
    "tags": {
      "addr:city": "Berlin",
      "addr:country": "DE",
      "addr:housenumber": "40",
      "addr:street": "Hermann-Blankenstein-Straße",
      "addr:suburb": "Prenzlauer Berg",
      "name": "Penny",
      "opening_hours": "Mo-Sa 08:00-21:00",
      "operator": "Rewe-Group",
      "shop": "supermarket",
      "wheelchair": "yes"
    }
  },
  {
    "type": "node",
    "id": 264620848,
    "lat": 52.5565629,
    "lon": 13.5714829,
    "tags": {
      "name": "Rewe",
      "shop": "supermarket",
      "wheelchair": "yes"
    }
  },
  {
    "type": "node",
    "id": 264645629,
    "lat": 52.4686357,
    "lon": 13.3117953,
    "tags": {
      "addr:city": "Berlin",
      "addr:country": "DE",
      "addr:housenumber": "36",
      "addr:postcode": "14197",
      "addr:street": "Südwestkorso",
      "addr:suburb": "Wilmersdorf",
      "contact:website": "http://www.kaisers.de/Suchergebnis.159.0.html?&tx_locator_pi1[storeUid]=119",
      "name": "Rewe",
      "phone": "+493083222208",
      "shop": "supermarket",
      "wheelchair": "yes"
    }
  },
  {
    "type": "node",
    "id": 266623061,
    "lat": 52.5045641,
    "lon": 13.5903932,
    "tags": {
      "addr:city": "Berlin",
      "addr:country": "DE",
      "addr:housenumber": "64",
      "addr:postcode": "12621",
      "addr:street": "Alt-Kaulsdorf",
      "addr:suburb": "Kaulsdorf",
      "name": "Rewe",
      "opening_hours": "Mo-Sa 07:00-22:00",
      "shop": "supermarket",
      "wheelchair": "yes"
    }
  },
  {
    "type": "node",
    "id": 266623118,
    "lat": 52.5041188,
    "lon": 13.5899079,
    "tags": {
      "addr:city": "Berlin",
      "addr:country": "DE",
      "addr:housenumber": "64",
      "addr:postcode": "12621",
      "addr:street": "Alt-Kaulsdorf",
      "addr:suburb": "Kaulsdorf",
      "name": "ALDI",
      "opening_hours": "Mo-Fr 08:00-20:00; Sa 08:00-18:00",
      "operator": "Aldi Nord",
      "shop": "supermarket",
      "wheelchair": "yes"
    }
  },
  {
    "type": "node",
    "id": 267609326,
    "lat": 52.5339076,
    "lon": 13.4259872,
    "tags": {
      "addr:city": "Berlin",
      "addr:country": "DE",
      "addr:housenumber": "18-20",
      "addr:postcode": "10405",
      "addr:street": "Winsstraße",
      "addr:suburb": "Prenzlauer Berg",
      "drink:club-mate": "yes",
      "name": "Edeka",
      "opening_hours": "Mo-Fr 07:00-24:00; Sa 07:00-23:30",
      "phone": "+49 30 44340706",
      "shop": "supermarket",
      "website": "http://www.edeka.de",
      "wheelchair": "yes"
    }
  },
  {
    "type": "node",
    "id": 267642274,
    "lat": 52.4993302,
    "lon": 13.4210651,
    "tags": {
      "addr:city": "Berlin",
      "addr:country": "DE",
      "addr:housenumber": "127",
      "addr:postcode": "10999",
      "addr:street": "Skalitzer Straße",
      "addr:suburb": "Kreuzberg",
      "contact:phone": "+49 30 31 95 80 10",
      "contact:website": "http://www.biocompany.de",
      "name": "Bio Company",
      "operator": "BioCompany",
      "organic": "only",
      "shop": "supermarket",
      "wheelchair": "yes"
    }
  },
  {
    "type": "node",
    "id": 268021255,
    "lat": 52.5190231,
    "lon": 13.3007888,
    "tags": {
      "addr:city": "Berlin",
      "addr:country": "DE",
      "addr:postcode": "10585",
      "addr:street": "Otto-Suhr-Allee",
      "addr:suburb": "Charlottenburg",
      "name": "Rewe",
      "shop": "supermarket",
      "wheelchair": "yes"
    }
  },
  {
    "type": "node",
    "id": 268664135,
    "lat": 52.563584,
    "lon": 13.412146,
    "tags": {
      "addr:city": "Berlin",
      "addr:country": "DE",
      "addr:housenumber": "27-28",
      "addr:postcode": "13189",
      "addr:street": "Berliner Straße",
      "addr:suburb": "Pankow",
      "name": "Lidl",
      "opening_hours": "Mo-Sa 08:00-21:00",
      "operator": "Lidl & Schwarz",
      "shop": "supermarket",
      "source": "local_knowledge",
      "toilets:wheelchair": "no",
      "website": "http://www.lidl.de",
      "wheelchair": "yes"
    }
  },
  {
    "type": "node",
    "id": 268844516,
    "lat": 52.6082579,
    "lon": 13.2353863,
    "tags": {
      "name": "Edeka",
      "shop": "supermarket",
      "wheelchair": "yes"
    }
  },
  {
    "type": "node",
    "id": 268845115,
    "lat": 52.6097415,
    "lon": 13.248277,
    "tags": {
      "name": "Top Frischemarkt",
      "shop": "supermarket",
      "wheelchair": "limited"
    }
  },
  {
    "type": "node",
    "id": 269475044,
    "lat": 52.5017902,
    "lon": 13.4165385,
    "tags": {
      "addr:city": "Berlin",
      "addr:country": "DE",
      "addr:housenumber": "20",
      "addr:postcode": "10999",
      "addr:street": "Dresdener Straße",
      "addr:suburb": "Kreuzberg",
      "amenity": "fast_food",
      "name": "Milchladen",
      "organic": "only",
      "shop": "supermarket",
      "wheelchair": "no"
    }
  },
  {
    "type": "node",
    "id": 269478706,
    "lat": 52.432822,
    "lon": 13.5351004,
    "tags": {
      "addr:city": "Berlin",
      "addr:country": "DE",
      "addr:housenumber": "12",
      "addr:postcode": "12489",
      "addr:street": "Rudower Chaussee",
      "addr:suburb": "Adlershof",
      "name": "Kaufland",
      "opening_hours": "Mo-Fr 07:00-22:00; PH off",
      "shop": "supermarket",
      "toilets:wheelchair": "yes",
      "wheelchair": "yes"
    }
  },
  {
    "type": "node",
    "id": 269479009,
    "lat": 52.5135642,
    "lon": 13.4060875,
    "tags": {
      "addr:city": "Berlin",
      "addr:country": "DE",
      "addr:housenumber": "12",
      "addr:postcode": "10179",
      "addr:street": "Fischerinsel",
      "addr:suburb": "Mitte",
      "contact:website": "http://www.edeka.de",
      "name": "Edeka Ungefroren",
      "opening_hours": "Mo-Sa 07:00-21:00",
      "shop": "supermarket",
      "toilets:wheelchair": "yes",
      "wheelchair": "yes"
    }
  },
  {
    "type": "node",
    "id": 270793632,
    "lat": 52.4315294,
    "lon": 13.7144332,
    "tags": {
      "name": "Aldi",
      "opening_hours": "Mo-Sa 08:00-20:00",
      "shop": "supermarket",
      "wheelchair": "yes"
    }
  },
  {
    "type": "node",
    "id": 270814685,
    "lat": 52.44232,
    "lon": 13.2404658,
    "tags": {
      "addr:city": "Berlin",
      "addr:country": "DE",
      "addr:housenumber": "68",
      "addr:postcode": "14163",
      "addr:street": "Fischerhüttenstraße",
      "addr:suburb": "Zehlendorf",
      "level": "0",
      "name": "Rewe City",
      "opening_hours": "Mo-Sa 07:00-22:00",
      "operator": "Rewe Markt GmbH",
      "phone": "+49 30 80496133",
      "shop": "supermarket",
      "website": "https://www.rewe.de/marktseite/rewe-city-markt-berlin-fischerh%C3%BCttenstr.-64-68/",
      "wheelchair": "yes"
    }
  },
  {
    "type": "node",
    "id": 270814692,
    "lat": 52.4268546,
    "lon": 13.2159158,
    "tags": {
      "addr:city": "Berlin",
      "addr:housenumber": "80",
      "addr:postcode": "14129",
      "addr:street": "Potsdamer Chaussee",
      "addr:suburb": "Zehlendorf",
      "name": "Edeka",
      "shop": "supermarket",
      "website": "https://www.edeka.de/eh/minden-hannover/edeka-potsdamer-chaussee-potsdamer-chaussee-80/index.jsp",
      "wheelchair": "yes"
    }
  },
  {
    "type": "node",
    "id": 271738194,
    "lat": 52.5374738,
    "lon": 13.2047625,
    "tags": {
      "addr:city": "Berlin",
      "addr:country": "DE",
      "addr:postcode": "13597",
      "addr:suburb": "Spandau",
      "drink:club-mate": "yes",
      "name": "Edeka",
      "opening_hours": "Mo-Fr 07:00-24:00; Sa 07:00-23:30; Su,PH off",
      "phone": "+49 30 35302393",
      "shop": "supermarket",
      "website": "https://www.edeka.de",
      "wheelchair": "yes",
      "wheelchair:description": "enge Gänge"
    }
  },
  {
    "type": "node",
    "id": 272247519,
    "lat": 52.4560576,
    "lon": 13.4374685,
    "tags": {
      "addr:city": "Berlin",
      "addr:country": "DE",
      "addr:housenumber": "73",
      "addr:postcode": "12347",
      "addr:street": "Britzer Damm",
      "addr:suburb": "Britz",
      "name": "Penny",
      "opening_hours": "Mo-Sa 07:00-22:00",
      "operator": "Penny",
      "shop": "supermarket",
      "toilets:wheelchair": "no",
      "wheelchair": "yes"
    }
  },
  {
    "type": "node",
    "id": 272247672,
    "lat": 52.4574201,
    "lon": 13.4373312,
    "tags": {
      "addr:city": "Berlin",
      "addr:country": "DE",
      "addr:housenumber": "55-59",
      "addr:postcode": "12347",
      "addr:street": "Britzer Damm",
      "addr:suburb": "Britz",
      "name": "Edeka",
      "opening_hours": "Mo-Sa 07:00-22:00",
      "phone": "+493060902190",
      "shop": "supermarket",
      "toilets:wheelchair": "no",
      "website": "https://www.edeka.de/",
      "wheelchair": "yes"
    }
  },
  {
    "type": "node",
    "id": 273759099,
    "lat": 52.4630725,
    "lon": 13.3388468,
    "tags": {
      "name": "Netto Marken-Discount",
      "note": "ID=7757",
      "opening_hours": "Mo-Sa 07:00-20:00",
      "shop": "supermarket",
      "website": "http://www.netto-online.de",
      "wheelchair": "yes"
    }
  },
  {
    "type": "node",
    "id": 273765898,
    "lat": 52.523423,
    "lon": 13.3065606,
    "tags": {
      "addr:city": "Berlin",
      "addr:country": "DE",
      "addr:housenumber": "24-26",
      "addr:postcode": "10589",
      "addr:street": "Sömmeringstraße",
      "name": "Rewe",
      "opening_hours": "Mo-Sa 07:00-23:30",
      "shop": "supermarket",
      "wheelchair": "yes"
    }
  },
  {
    "type": "node",
    "id": 273766071,
    "lat": 52.5235804,
    "lon": 13.30931,
    "tags": {
      "name": "Aldi",
      "shop": "supermarket",
      "wheelchair": "yes"
    }
  },
  {
    "type": "node",
    "id": 274864620,
    "lat": 52.5246216,
    "lon": 13.1977106,
    "tags": {
      "addr:city": "Berlin",
      "addr:country": "DE",
      "addr:housenumber": "110",
      "addr:postcode": "13595",
      "addr:street": "Pichelsdorfer Straße",
      "addr:suburb": "Wilhelmstadt",
      "name": "Rewe City",
      "opening_hours": "Mo-Fr 07:00-24:00; Sa 07:00-23:30; Su,PH off",
      "operator": "Rewe",
      "shop": "supermarket",
      "wheelchair": "yes"
    }
  },
  {
    "type": "node",
    "id": 276145759,
    "lat": 52.4640756,
    "lon": 13.4857448,
    "tags": {
      "addr:city": "Berlin",
      "addr:housenumber": "31",
      "addr:postcode": "12437",
      "addr:street": "Baumschulenstraße",
      "drink:club-mate": "retail",
      "name": "Edeka",
      "opening_hours": "Mo-Fr 07:00-00:00; Sa 07:00-23:30",
      "operator": "Edeka",
      "payment:cash": "yes",
      "payment:debit_cards": "yes",
      "payment:mastercard": "yes",
      "payment:visa": "yes",
      "shop": "supermarket",
      "wheelchair": "yes"
    }
  },
  {
    "type": "node",
    "id": 276191847,
    "lat": 52.5194368,
    "lon": 13.5973616,
    "tags": {
      "name": "Norma",
      "shop": "supermarket",
      "wheelchair": "yes"
    }
  },
  {
    "type": "node",
    "id": 277270271,
    "lat": 52.4692567,
    "lon": 13.3414656,
    "tags": {
      "name": "Aldi",
      "opening_hours": "Mo-Sa 08:00-21:00",
      "shop": "supermarket",
      "toilets:wheelchair": "no",
      "wheelchair": "yes"
    }
  },
  {
    "type": "node",
    "id": 277837190,
    "lat": 52.4639513,
    "lon": 13.4731548,
    "tags": {
      "addr:city": "Berlin",
      "addr:country": "DE",
      "addr:housenumber": "330",
      "addr:postcode": "12057",
      "addr:street": "Sonnenallee",
      "addr:suburb": "Neukölln",
      "name": "Edeka",
      "phone": "+490306851058",
      "shop": "supermarket",
      "website": "http://www.marktjagd.de/geschaeft/EDEKA-Berlin-Neukoelln-Sonnenallee:205443",
      "wheelchair": "yes"
    }
  },
  {
    "type": "node",
    "id": 278735090,
    "lat": 52.5459801,
    "lon": 13.3591874,
    "tags": {
      "contact:website": "https://www.netto-online.de",
      "level": "-1",
      "name": "Netto Marken-Discount",
      "opening_hours": "Mo-Sa 07:00-20:00",
      "operator": "Netto Marken-Discount AG & Co. KG",
      "shop": "supermarket",
      "surveillance": "indoor",
      "wheelchair": "no",
      "wheelchair:description": "Über Aufzug erreichbar, enger Zugang."
    }
  },
  {
    "type": "node",
    "id": 279224131,
    "lat": 52.4702479,
    "lon": 13.4617637,
    "tags": {
      "name": "ALDI",
      "shop": "supermarket",
      "website": "http://www.aldi-nord.de/",
      "wheelchair": "yes"
    }
  },
  {
    "type": "node",
    "id": 281426281,
    "lat": 52.4621977,
    "lon": 13.5128971,
    "tags": {
      "addr:city": "Berlin",
      "addr:country": "DE",
      "addr:housenumber": "89A",
      "addr:postcode": "12459",
      "addr:street": "Wilhelminenhofstraße",
      "name": "Penny",
      "opening_hours": "Mo-Sa 07:00-21:00",
      "operator": "PENNY Markt GmbH",
      "shop": "supermarket",
      "website": "http://www.penny.de",
      "wheelchair": "yes"
    }
  },
  {
    "type": "node",
    "id": 283190905,
    "lat": 52.5021,
    "lon": 13.4144676,
    "tags": {
      "addr:housenumber": "4",
      "addr:postcode": "10999",
      "addr:street": "Oranienplatz",
      "name": "Lidl",
      "opening_hours": "Mo-Sa 08:00-21:00",
      "shop": "supermarket",
      "wheelchair": "yes"
    }
  },
  {
    "type": "node",
    "id": 283443676,
    "lat": 52.5208001,
    "lon": 13.3343449,
    "tags": {
      "addr:city": "Berlin",
      "addr:country": "DE",
      "addr:housenumber": "10-10a",
      "addr:postcode": "10555",
      "addr:street": "Levetzowstraße",
      "addr:suburb": "Moabit",
      "contact:phone": "+49 30 3981099-0",
      "name": "Edeka Simon",
      "opening_hours": "Mo-Fr 07:00-22:00; Sa 07:00-23:00",
      "shop": "supermarket",
      "wheelchair": "yes"
    }
  },
  {
    "type": "node",
    "id": 285071508,
    "lat": 52.5126115,
    "lon": 13.4597619,
    "tags": {
      "addr:city": "Berlin",
      "addr:country": "DE",
      "addr:housenumber": "103",
      "addr:postcode": "10245",
      "addr:street": "Boxhagener Straße",
      "addr:suburb": "Friedrichshain",
      "contact:phone": "+49 30 52130688",
      "contact:website": "https://www.denns-biomarkt.de/berlin-boxhagener-str-103/marktseite/",
      "name": "denn's Biomarkt",
      "organic": "only",
      "shop": "supermarket",
      "wheelchair": "yes"
    }
  },
  {
    "type": "node",
    "id": 286740930,
    "lat": 52.5025783,
    "lon": 13.3436239,
    "tags": {
      "addr:city": "Berlin",
      "addr:country": "DE",
      "addr:housenumber": "4",
      "addr:postcode": "10789",
      "addr:street": "Wittenbergplatz",
      "addr:suburb": "Schöneberg",
      "name": "Edeka Wittenbergplatz",
      "opening_hours": "Mo-Fr 07:00-24:00; Sa 07:00-23:30; Su,PH off",
      "phone": "+49 30 21473420",
      "shop": "supermarket",
      "toilets:wheelchair": "no",
      "wheelchair": "limited"
    }
  },
  {
    "type": "node",
    "id": 289359993,
    "lat": 52.5068867,
    "lon": 13.5577999,
    "tags": {
      "addr:housenumber": "88 - 108",
      "addr:postcode": "12683",
      "name": "Kaufland",
      "opening_hours": "Mo-Sa 07:00-22:00",
      "phone": "0306341160",
      "shop": "supermarket",
      "wheelchair": "yes",
      "wheelchair:description": "das Einkaufszentrum verfügt über eine Reihe von Parkplätzen für Rollstuhlfahrer, diese sind aber (vor allem die auf dem oberen Parkplatz) zumeist zugeparkt und stehen selten zur Verfügung"
    }
  },
  {
    "type": "node",
    "id": 292092618,
    "lat": 52.5253179,
    "lon": 13.4657849,
    "tags": {
      "name": "Edeka",
      "opening_hours": "Mo-Sa 07:00-22:00",
      "shop": "supermarket",
      "wheelchair": "yes"
    }
  },
  {
    "type": "node",
    "id": 293130845,
    "lat": 52.4262609,
    "lon": 13.3024814,
    "tags": {
      "name": "Rewe",
      "opening_hours": "Mo-Sa 07:00-21:45",
      "shop": "supermarket",
      "wheelchair": "limited"
    }
  },
  {
    "type": "node",
    "id": 293130996,
    "lat": 52.4269688,
    "lon": 13.3036734,
    "tags": {
      "name": "ALDI",
      "shop": "supermarket",
      "wheelchair": "yes"
    }
  },
  {
    "type": "node",
    "id": 293137288,
    "lat": 52.6183146,
    "lon": 13.4863142,
    "tags": {
      "name": "Rewe",
      "shop": "supermarket",
      "wheelchair": "yes"
    }
  },
  {
    "type": "node",
    "id": 293244992,
    "lat": 52.560815,
    "lon": 13.3654858,
    "tags": {
      "internet_access": "wlan",
      "internet_access:fee": "no",
      "name": "Edeka",
      "opening_hours": "Mo-Sa 07:00-22:00",
      "shop": "supermarket",
      "wheelchair": "yes"
    }
  },
  {
    "type": "node",
    "id": 294036281,
    "lat": 52.5947516,
    "lon": 13.3352782,
    "tags": {
      "addr:city": "Berlin",
      "addr:country": "DE",
      "addr:housenumber": "231",
      "addr:postcode": "13435",
      "addr:street": "Wilhelmsruher Damm",
      "addr:suburb": "Wittenau",
      "name": "Edeka",
      "opening_hours": "Mo 07:00-24:00; Tu-Fr 00:00-24:00; Sa 00:00-23:00",
      "phone": "+49 30 40999680",
      "shop": "supermarket",
      "website": "http://www.edeka.de",
      "wheelchair": "yes"
    }
  },
  {
    "type": "node",
    "id": 297477471,
    "lat": 52.5239186,
    "lon": 13.4467143,
    "tags": {
      "addr:city": "Berlin",
      "addr:country": "DE",
      "addr:housenumber": "34",
      "addr:postcode": "10249",
      "addr:street": "Kochhannstraße",
      "addr:suburb": "Friedrichshain",
      "brand": "Netto Marken-Discount AG & Co. KG",
      "name": "Netto Marken-Discount",
      "opening_hours": "Mo-Sa 07:00-21:00; PH off",
      "shop": "supermarket",
      "wheelchair": "limited",
      "wheelchair:description": "stufenloser Zugang nur bis 20:00 nutzbar, dann geschlossen und nur noch Zugang über Eingang mit Stufen."
    }
  },
  {
    "type": "node",
    "id": 297803736,
    "lat": 52.4297351,
    "lon": 13.330048,
    "tags": {
      "addr:city": "Berlin",
      "addr:country": "DE",
      "addr:housenumber": "19",
      "addr:postcode": "12209",
      "addr:street": "Lankwitzer Straße",
      "addr:suburb": "Lichterfelde",
      "level": "1",
      "name": "ALDI",
      "opening_hours": "Mo-Sa 08:00-20:00",
      "shop": "supermarket",
      "wheelchair": "yes"
    }
  },
  {
    "type": "node",
    "id": 298811748,
    "lat": 52.4433223,
    "lon": 13.2968177,
    "tags": {
      "addr:city": "Berlin",
      "addr:country": "DE",
      "addr:housenumber": "33a",
      "addr:postcode": "12205",
      "addr:street": "Drakestraße",
      "addr:suburb": "Lichterfelde",
      "contact:fax": "+49 30 84186036",
      "contact:phone": "+49 30 84418235",
      "contact:website": "http://www.nahkauf.de/",
      "name": "Nahkauf",
      "owner": "Burkart & Lind GbR",
      "shop": "supermarket",
      "wheelchair": "yes"
    }
  },
  {
    "type": "node",
    "id": 300818499,
    "lat": 52.4893173,
    "lon": 13.3458969,
    "tags": {
      "addr:city": "Berlin",
      "addr:country": "DE",
      "addr:housenumber": "36-37",
      "addr:postcode": "10823",
      "addr:street": "Grunewaldstraße",
      "addr:suburb": "Schöneberg",
      "name": "Penny",
      "opening_hours": "Mo-Sa 07:00-22:00",
      "shop": "supermarket",
      "website": "http://www.penny.de",
      "wheelchair": "yes",
      "wikidata": "Q284688",
      "wikipedia": "de:Penny (Markt)"
    }
  },
  {
    "type": "node",
    "id": 301787391,
    "lat": 52.5652376,
    "lon": 13.3788276,
    "tags": {
      "name": "Lidl",
      "opening_hours": "Mo-Sa 08:00-21:00",
      "shop": "supermarket",
      "wheelchair": "yes"
    }
  },
  {
    "type": "node",
    "id": 301845927,
    "lat": 52.4173898,
    "lon": 13.3620284,
    "tags": {
      "addr:city": "Berlin",
      "addr:country": "DE",
      "addr:housenumber": "162/164",
      "addr:postcode": "12277",
      "addr:street": "Malteserstraße",
      "addr:suburb": "Marienfelde",
      "name": "Lidl",
      "shop": "supermarket",
      "wheelchair": "yes"
    }
  },
  {
    "type": "node",
    "id": 304367382,
    "lat": 52.5250164,
    "lon": 13.1414723,
    "tags": {
      "name": "Rewe",
      "opening_hours": "Mo-Sa 07:00-22:00",
      "shop": "supermarket",
      "wheelchair": "yes"
    }
  },
  {
    "type": "node",
    "id": 304371509,
    "lat": 52.5687728,
    "lon": 13.5684082,
    "tags": {
      "addr:city": "Berlin",
      "addr:country": "DE",
      "addr:housenumber": "12a",
      "addr:postcode": "12689",
      "addr:street": "Havemannstraße",
      "addr:suburb": "Marzahn",
      "name": "Rewe",
      "opening_hours": "Mo-Sa 07:00-22:00",
      "shop": "supermarket",
      "wheelchair": "yes"
    }
  },
  {
    "type": "node",
    "id": 308019560,
    "lat": 52.504817,
    "lon": 13.5149907,
    "tags": {
      "name": "REWE",
      "old_name": "Kaiser's",
      "opening_hours": "Mo-Sa 07:00-22:00",
      "shop": "supermarket",
      "surveillance": "indoor",
      "wheelchair": "yes"
    }
  },
  {
    "type": "node",
    "id": 309150372,
    "lat": 52.429854,
    "lon": 13.3347492,
    "tags": {
      "addr:city": "Berlin",
      "addr:country": "DE",
      "addr:housenumber": "11",
      "addr:postcode": "12247",
      "addr:street": "Kaiser-Wilhelm-Straße",
      "addr:suburb": "Lankwitz",
      "brand": "Netto Marken-Discount AG & Co. KG",
      "name": "Netto Marken-Discount",
      "opening_hours": "Mo-Sa 07:00-21:00",
      "shop": "supermarket",
      "wheelchair": "yes"
    }
  },
  {
    "type": "node",
    "id": 309558302,
    "lat": 52.4978714,
    "lon": 13.2971416,
    "tags": {
      "addr:city": "Berlin",
      "addr:country": "DE",
      "addr:housenumber": "142",
      "addr:postcode": "10709",
      "addr:street": "Kurfürstendamm",
      "addr:suburb": "Halensee",
      "name": "REWE City",
      "opening_hours": "Mo-Fr 07:00-00:00; Sa 07:00-23:30",
      "shop": "supermarket",
      "wheelchair": "yes"
    }
  },
  {
    "type": "node",
    "id": 310377176,
    "lat": 52.4808992,
    "lon": 13.3430964,
    "tags": {
      "name": "Nahkauf",
      "opening_hours": "Mo-Fr 08:00-20:00; Sa 08:00-16:00",
      "shop": "supermarket",
      "wheelchair": "no"
    }
  },
  {
    "type": "node",
    "id": 310377179,
    "lat": 52.4885089,
    "lon": 13.3382267,
    "tags": {
      "name": "Edeka",
      "opening_hours": "Mo-Fr 08:00-20:00; Sa 08:00-16:00; Su,PH off",
      "shop": "supermarket",
      "wheelchair": "limited"
    }
  },
  {
    "type": "node",
    "id": 313040127,
    "lat": 52.5714581,
    "lon": 13.4178738,
    "tags": {
      "name": "Edeka Hadlichstraße",
      "opening_hours": "Mo-Fr 07:00-24:00; Sa 07:00-23:30",
      "operator": "Edeka",
      "shop": "supermarket",
      "wheelchair": "yes"
    }
  },
  {
    "type": "node",
    "id": 313080918,
    "lat": 52.5065739,
    "lon": 13.2930266,
    "tags": {
      "addr:city": "Berlin",
      "addr:country": "DE",
      "addr:housenumber": "29-30",
      "addr:postcode": "14057",
      "addr:street": "Neue Kantstraße",
      "addr:suburb": "Charlottenburg",
      "entrance": "yes",
      "name": "Edeka Neue Kantstraße",
      "opening_hours": "Mo-Fr 07:00-24:00; Sa 07:00-23:30; Su,PH off",
      "operator": "Edeka",
      "shop": "supermarket",
      "wheelchair": "yes"
    }
  },
  {
    "type": "node",
    "id": 313144179,
    "lat": 52.5251872,
    "lon": 13.4446299,
    "tags": {
      "addr:city": "Berlin",
      "addr:country": "DE",
      "addr:street": "Landsberger Allee",
      "addr:suburb": "Friedrichshain",
      "brand": "Netto Marken-Discount AG & Co. KG",
      "name": "Netto Marken-Discount",
      "opening_hours": "Mo-Sa 07:00-22:00; PH off",
      "shop": "supermarket",
      "toilets:wheelchair": "no",
      "wheelchair": "yes",
      "wheelchair:description": "Gänge eng und zugestellt"
    }
  },
  {
    "type": "node",
    "id": 313144196,
    "lat": 52.5258345,
    "lon": 13.4469831,
    "tags": {
      "addr:city": "Berlin",
      "addr:country": "DE",
      "addr:housenumber": "68D",
      "addr:postcode": "10249",
      "addr:street": "Landsberger Allee",
      "addr:suburb": "Friedrichshain",
      "contact:phone": "+49 30 42016551",
      "contact:website": "http://www.rewe.de/",
      "name": "Rewe City",
      "opening_hours": "Mo-Fr 07:00-24:00; Sa 07:00-23:30",
      "shop": "supermarket",
      "toilets:wheelchair": "no",
      "wheelchair": "yes"
    }
  },
  {
    "type": "node",
    "id": 315775250,
    "lat": 52.5567323,
    "lon": 13.4373178,
    "tags": {
      "name": "Lidl",
      "shop": "supermarket",
      "website": "https://www.lidl.de",
      "wheelchair": "yes"
    }
  },
  {
    "type": "node",
    "id": 315801862,
    "lat": 52.4920032,
    "lon": 13.3447835,
    "tags": {
      "addr:city": "Berlin",
      "addr:country": "DE",
      "addr:housenumber": "52-54",
      "addr:postcode": "10779",
      "addr:street": "Martin-Luther-Straße",
      "addr:suburb": "Schöneberg",
      "name": "Edeka Martin-Luther-Straße",
      "opening_hours": "Mo-Sa 07:00-22:00",
      "operator": "Edeka",
      "shop": "supermarket",
      "wheelchair": "yes",
      "wheelchair:description": "Zugang über Barbarossastraße 47 möglich"
    }
  },
  {
    "type": "node",
    "id": 316540435,
    "lat": 52.525595,
    "lon": 13.3014637,
    "tags": {
      "addr:city": "Berlin",
      "addr:country": "DE",
      "addr:housenumber": "27",
      "addr:postcode": "10589",
      "addr:street": "Osnabrücker Straße",
      "addr:suburb": "Charlottenburg",
      "name": "Edeka",
      "opening_hours": "Mo-Sa 08:00-22:00",
      "phone": "+49 30 3443636",
      "shop": "supermarket",
      "website": "http://www.edeka.de",
      "wheelchair": "limited"
    }
  },
  {
    "type": "node",
    "id": 316772479,
    "lat": 52.5890882,
    "lon": 13.284848,
    "tags": {
      "addr:city": "Berlin",
      "addr:country": "DE",
      "addr:housenumber": "96",
      "addr:postcode": "13507",
      "addr:street": "Berliner Straße",
      "addr:suburb": "Tegel",
      "name": "Edeka",
      "opening_hours": "Mo-Sa 07:00-22:00; PH off",
      "operator": "Elvira Zech e.K.",
      "shop": "supermarket",
      "surveillance": "indoor",
      "wheelchair": "yes",
      "wheelchair:description": "Zugang ebenerdig, aber schmale Gänge und Kassen"
    }
  },
  {
    "type": "node",
    "id": 317732496,
    "lat": 52.5047239,
    "lon": 13.3074695,
    "tags": {
      "name": "Bio Company",
      "opening_hours": "Mo-Sa 08:00-20:00",
      "organic": "yes",
      "shop": "supermarket",
      "wheelchair": "yes"
    }
  },
  {
    "type": "node",
    "id": 317991364,
    "lat": 52.5160549,
    "lon": 13.4406783,
    "tags": {
      "addr:city": "Berlin",
      "addr:country": "DE",
      "addr:housenumber": "38",
      "addr:postcode": "10243",
      "addr:street": "Straße der Pariser Kommune",
      "addr:suburb": "Friedrichshain",
      "drink:club-mate": "retail",
      "name": "Edeka Kelz",
      "opening_hours": "Mo-Sa 08:00-21:00; Su,PH off",
      "operator": "EDEKA Kelz",
      "phone": "+49 30 29492760",
      "shop": "supermarket",
      "website": "http://www.edeka.de",
      "wheelchair": "yes"
    }
  },
  {
    "type": "node",
    "id": 318349845,
    "lat": 52.528335,
    "lon": 13.4128805,
    "tags": {
      "brand": "Netto Marken-Discount AG & Co. KG",
      "name": "Netto Marken-Discount",
      "shop": "supermarket",
      "wheelchair": "limited"
    }
  },
  {
    "type": "node",
    "id": 319211550,
    "lat": 52.5197615,
    "lon": 13.4506208,
    "tags": {
      "addr:city": "Berlin",
      "addr:country": "DE",
      "addr:housenumber": "7-11",
      "addr:postcode": "10249",
      "addr:street": "Eckertstraße",
      "addr:suburb": "Friedrichshain",
      "name": "Edeka",
      "opening_hours": "Mo-Sa 07:00-22:00",
      "phone": "+49 30 42203960",
      "shop": "supermarket",
      "wheelchair": "yes"
    }
  },
  {
    "type": "node",
    "id": 319211583,
    "lat": 52.5223299,
    "lon": 13.4351805,
    "tags": {
      "addr:city": "Berlin",
      "addr:country": "DE",
      "addr:housenumber": "94a",
      "addr:postcode": "10249",
      "addr:street": "Friedenstraße",
      "addr:suburb": "Friedrichshain",
      "contact:phone": "+49 180 5555435",
      "contact:website": "http://www.lidl.de",
      "name": "Lidl",
      "opening_hours": "Mo-Sa 08:00-21:00; Su,PH off",
      "shop": "supermarket",
      "survey:date": "2016-09-24",
      "wheelchair": "yes"
    }
  },
  {
    "type": "node",
    "id": 319546170,
    "lat": 52.5364169,
    "lon": 13.2747078,
    "tags": {
      "addr:city": "Berlin",
      "addr:country": "DE",
      "addr:housenumber": "43-44",
      "addr:postcode": "13629",
      "addr:street": "Siemensdamm",
      "addr:suburb": "Siemensstadt",
      "contact:phone": "+49 30 34347554",
      "contact:website": "http://www.rewe.de/",
      "name": "Rewe",
      "shop": "supermarket",
      "surveillance": "indoor",
      "wheelchair": "yes"
    }
  },
  {
    "type": "node",
    "id": 319584630,
    "lat": 52.52261,
    "lon": 13.4284778,
    "tags": {
      "name": "Edeka Riebe",
      "opening_hours": "Mo-Sa 07:00-22:00",
      "shop": "supermarket",
      "wheelchair": "yes"
    }
  },
  {
    "type": "node",
    "id": 320074857,
    "lat": 52.5345191,
    "lon": 13.4079979,
    "tags": {
      "addr:city": "Berlin",
      "addr:country": "DE",
      "addr:housenumber": "64/64a",
      "addr:postcode": "10435",
      "addr:street": "Choriner Straße",
      "addr:suburb": "Prenzlauer Berg",
      "contact:website": "https://www.lidl.de",
      "delivery": "no",
      "name": "Lidl",
      "opening_hours": "Mo-Sa 08:00-21:00",
      "shop": "supermarket",
      "source:addr:postcode": "website",
      "wheelchair": "yes"
    }
  },
  {
    "type": "node",
    "id": 324024777,
    "lat": 52.521405,
    "lon": 13.5896154,
    "tags": {
      "name": "Rewe",
      "shop": "supermarket",
      "wheelchair": "yes"
    }
  },
  {
    "type": "node",
    "id": 330967756,
    "lat": 52.5019678,
    "lon": 13.3859757,
    "tags": {
      "addr:city": "Berlin",
      "addr:country": "DE",
      "addr:housenumber": "52",
      "addr:postcode": "10963",
      "addr:street": "Stresemannstraße",
      "addr:suburb": "Kreuzberg",
      "name": "Netto",
      "opening_hours": "Mo-Sa 08:00-22:00",
      "operator": "Netto ApS & Co. KG, Preetzer Str. 22, 17153 Reuterstadt Stavenhagen",
      "shop": "supermarket",
      "source": "survey",
      "website": "http://www.netto.de",
      "wheelchair": "yes"
    }
  },
  {
    "type": "node",
    "id": 333434552,
    "lat": 52.4770369,
    "lon": 13.4230397,
    "tags": {
      "name": "Edeka",
      "opening_hours": "Mo-Sa 08:00-21:00",
      "operator": "Edeka",
      "shop": "supermarket",
      "wheelchair": "yes"
    }
  },
  {
    "type": "node",
    "id": 333460025,
    "lat": 52.4888756,
    "lon": 13.3942017,
    "tags": {
      "name": "Bio Company",
      "operator": "Bio Company",
      "organic": "only",
      "shop": "supermarket",
      "website": "https://www.biocompany.de",
      "wheelchair": "yes",
      "wheelchair:description:de": "um die ecke klingeln"
    }
  },
  {
    "type": "node",
    "id": 335897897,
    "lat": 52.536851,
    "lon": 13.403024,
    "tags": {
      "addr:city": "Berlin",
      "addr:country": "DE",
      "addr:housenumber": "8",
      "addr:postcode": "10435",
      "addr:street": "Granseer Straße",
      "addr:suburb": "Mitte",
      "name": "Gaumenweide",
      "opening_hours": "Mo-Fr 09:00-19:00; Sa 09:00-16:00",
      "organic": "only",
      "shop": "supermarket",
      "wheelchair": "no"
    }
  },
  {
    "type": "node",
    "id": 336027358,
    "lat": 52.5704123,
    "lon": 13.4035717,
    "tags": {
      "addr:city": "Berlin",
      "addr:country": "DE",
      "addr:housenumber": "20",
      "addr:postcode": "13187",
      "addr:street": "Breite Straße",
      "addr:suburb": "Pankow",
      "name": "Kaufland",
      "opening_hours": "Mo-Sa 07:00-22:00",
      "shop": "supermarket",
      "wheelchair": "yes"
    }
  },
  {
    "type": "node",
    "id": 336608019,
    "lat": 52.5517136,
    "lon": 13.4136956,
    "tags": {
      "addr:city": "Berlin",
      "addr:country": "DE",
      "addr:housenumber": "108",
      "addr:postcode": "10439",
      "addr:street": "Schönhauser Allee",
      "addr:suburb": "Prenzlauer Berg",
      "name": "Alnatura",
      "opening_hours": "Mo-Sa 09:00-21:00",
      "organic": "only",
      "shop": "supermarket",
      "website": "http://www.alnatura.de/de-DE/alnatura%20maerkte/Alnatura-Filialen-Detailseiten/B/Berlin%20Alnatura%20Super%20Natur%20Markt%20B060",
      "wheelchair": "yes"
    }
  },
  {
    "type": "node",
    "id": 345799583,
    "lat": 52.4413064,
    "lon": 13.2989595,
    "tags": {
      "addr:city": "Berlin",
      "addr:country": "DE",
      "addr:housenumber": "28",
      "addr:postcode": "12205",
      "addr:street": "Drakestraße",
      "addr:suburb": "Lichterfelde",
      "contact:phone": "+49-30–8441593-0",
      "name": "Edeka",
      "opening_hours": "Mo-Sa 08:00-22:00",
      "shop": "supermarket",
      "website": "http://www.edeka.de/",
      "wheelchair": "yes"
    }
  },
  {
    "type": "node",
    "id": 347303768,
    "lat": 52.4294636,
    "lon": 13.3302464,
    "tags": {
      "addr:city": "Berlin",
      "addr:country": "DE",
      "addr:housenumber": "19",
      "addr:postcode": "12209",
      "addr:street": "Lankwitzer Straße",
      "addr:suburb": "Lichterfelde",
      "contact:phone": "+49 30 70177200",
      "level": "1",
      "name": "Rewe",
      "shop": "supermarket",
      "wheelchair": "yes"
    }
  },
  {
    "type": "node",
    "id": 348000444,
    "lat": 52.5319807,
    "lon": 13.3970838,
    "tags": {
      "addr:city": "Berlin",
      "addr:housenumber": "158",
      "addr:postcode": "10115",
      "addr:street": "Invalidenstraße",
      "name": "Rewe",
      "opening_hours": "Mo-Sa 07:00-23:00",
      "phone": "030 28390336",
      "shop": "supermarket",
      "toilets:wheelchair": "yes",
      "website": "https://www.rewe.de/marktseite/rewe-markt-berlin-invalidenstra%C3%9Fe-158/",
      "wheelchair": "yes"
    }
  },
  {
    "type": "node",
    "id": 352905900,
    "lat": 52.4856563,
    "lon": 13.3568344,
    "tags": {
      "addr:city": "Berlin",
      "addr:country": "DE",
      "addr:housenumber": "1-2",
      "addr:postcode": "10827",
      "addr:street": "Kaiser-Wilhelm-Platz",
      "addr:suburb": "Schöneberg",
      "level": "1",
      "name": "Edeka",
      "shop": "supermarket",
      "wheelchair": "yes"
    }
  },
  {
    "type": "node",
    "id": 352905928,
    "lat": 52.4857584,
    "lon": 13.3574343,
    "tags": {
      "addr:city": "Berlin",
      "addr:country": "DE",
      "addr:housenumber": "2",
      "addr:postcode": "10827",
      "addr:street": "Kaiser-Wilhelm-Platz",
      "addr:suburb": "Schöneberg",
      "level": "0",
      "name": "Aldi",
      "shop": "supermarket",
      "wheelchair": "yes"
    }
  },
  {
    "type": "node",
    "id": 358183697,
    "lat": 52.5488799,
    "lon": 13.2010419,
    "tags": {
      "addr:city": "Berlin",
      "addr:country": "DE",
      "addr:housenumber": "32",
      "addr:postcode": "13585",
      "addr:street": "Schönwalder Straße",
      "addr:suburb": "Spandau",
      "alt_name": "Bolle",
      "contact:phone": "+49 30 35503705",
      "contact:website": "http://www.rewe.de",
      "name": "Rewe",
      "old_name": "Bolle",
      "shop": "supermarket",
      "wheelchair": "yes"
    }
  },
  {
    "type": "node",
    "id": 359096354,
    "lat": 52.437065,
    "lon": 13.2622014,
    "tags": {
      "addr:city": "Berlin",
      "addr:country": "DE",
      "addr:housenumber": "336",
      "addr:postcode": "14169",
      "addr:street": "Clayallee",
      "addr:suburb": "Zehlendorf",
      "contact:phone": "+493081295890",
      "contact:website": "https://www.rewe.de",
      "level": "0",
      "name": "Rewe",
      "opening_hours": "Mo-Fr 07:00-24:00; Sa 07:00-23:30",
      "operator": "Rewe Markt GmbH",
      "payment:cards": "yes",
      "payment:cash": "yes",
      "payment:coins": "yes",
      "payment:credit_cards": "yes",
      "payment:debit_cards": "yes",
      "payment:girocard": "yes",
      "payment:mastercard": "yes",
      "payment:notes": "yes",
      "payment:visa": "yes",
      "phone": "+49 30 81295890",
      "shop": "supermarket",
      "website": "https://www.rewe.de/marktseite/berlin/1931138/rewe-markt-clayallee-336/",
      "wheelchair": "yes"
    }
  },
  {
    "type": "node",
    "id": 359754358,
    "lat": 52.4818884,
    "lon": 13.3488522,
    "tags": {
      "addr:city": "Berlin",
      "addr:country": "DE",
      "addr:housenumber": "29",
      "addr:postcode": "10827",
      "addr:street": "Dominicusstraße",
      "addr:suburb": "Schöneberg",
      "name": "Istanbul Supermarkt",
      "phone": "+49303938672",
      "shop": "supermarket",
      "type": "turkish",
      "wheelchair": "yes"
    }
  },
  {
    "type": "node",
    "id": 364048640,
    "lat": 52.564489,
    "lon": 13.5073008,
    "tags": {
      "name": "Aldi",
      "shop": "supermarket",
      "wheelchair": "yes"
    }
  },
  {
    "type": "node",
    "id": 365711254,
    "lat": 52.5005982,
    "lon": 13.4762753,
    "tags": {
      "addr:city": "Berlin",
      "addr:country": "DE",
      "addr:housenumber": "4a",
      "addr:postcode": "10317",
      "addr:street": "Hauptstraße",
      "addr:suburb": "Rummelsburg",
      "name": "Norma",
      "opening_hours": "Mo-Sa 08:00-20:00",
      "operator": "Norma",
      "shop": "supermarket",
      "wheelchair": "yes"
    }
  },
  {
    "type": "node",
    "id": 371151371,
    "lat": 52.4888448,
    "lon": 13.4249424,
    "tags": {
      "addr:city": "Berlin",
      "addr:country": "DE",
      "addr:postcode": "10967",
      "addr:street": "Kottbusser Damm",
      "addr:suburb": "Neukölln",
      "entrance": "yes",
      "name": "Penny",
      "shop": "supermarket",
      "wheelchair": "yes"
    }
  },
  {
    "type": "node",
    "id": 371817090,
    "lat": 52.5301247,
    "lon": 13.3373959,
    "tags": {
      "addr:city": "Berlin",
      "addr:housenumber": "60-62",
      "addr:postcode": "10551",
      "addr:street": "Wiclefstraße",
      "name": "Edeka",
      "opening_hours": "Mo-Sa 08:00-20:00",
      "operator": "Vaupel GmbH",
      "shop": "supermarket",
      "wheelchair": "yes"
    }
  },
  {
    "type": "node",
    "id": 373861896,
    "lat": 52.5453852,
    "lon": 13.4124205,
    "tags": {
      "addr:city": "Berlin",
      "addr:country": "DE",
      "addr:housenumber": "130",
      "addr:postcode": "10437",
      "addr:street": "Schönhauser Allee",
      "addr:suburb": "Prenzlauer Berg",
      "atm": "no",
      "delivery": "no",
      "internet_access": "no",
      "level": "0",
      "name": "REWE City",
      "opening_hours": "Mo 07:00-24:00; Tu-Fr 00:00-24:00; Sa 00:00-23:00",
      "shop": "supermarket",
      "wheelchair": "yes"
    }
  },
  {
    "type": "node",
    "id": 387800422,
    "lat": 52.4908839,
    "lon": 13.4578524,
    "tags": {
      "addr:city": "Berlin",
      "addr:country": "DE",
      "addr:housenumber": "14",
      "addr:postcode": "12435",
      "addr:street": "Am Treptower Park",
      "addr:suburb": "Alt-Treptow",
      "drink:club-mate": "retail",
      "name": "Real",
      "opening_hours": "Mo-Sa 08:00-22:00",
      "phone": "+49305360790",
      "shop": "supermarket",
      "website": "http://www.real.de/nc/suche.html?bkz=8233",
      "wheelchair": "yes"
    }
  },
  {
    "type": "node",
    "id": 389081203,
    "lat": 52.4611526,
    "lon": 13.5164664,
    "tags": {
      "addr:city": "Berlin",
      "addr:country": "DE",
      "addr:housenumber": "83-85",
      "addr:postcode": "12459",
      "addr:street": "Wilhelminenhofstraße",
      "addr:suburb": "Oberschöneweide",
      "name": "Lidl",
      "opening_hours": "Mo-Sa 08:00-21:00",
      "shop": "supermarket",
      "website": "https://www.lidl.de",
      "wheelchair": "yes"
    }
  },
  {
    "type": "node",
    "id": 390384562,
    "lat": 52.518976,
    "lon": 13.1707459,
    "tags": {
      "addr:city": "Berlin",
      "addr:country": "DE",
      "addr:housenumber": "378-382",
      "addr:postcode": "13593",
      "addr:street": "Heerstraße",
      "addr:suburb": "Wilhelmstadt",
      "contact:phone": "+491803331010",
      "contact:website": "http://www.penny.de/",
      "name": "Penny",
      "opening_hours": "Mo-Sa 07:00-22:00",
      "operator": "Penny",
      "shop": "supermarket",
      "wheelchair": "limited"
    }
  },
  {
    "type": "node",
    "id": 390502682,
    "lat": 52.4984121,
    "lon": 13.4420092,
    "tags": {
      "addr:city": "Berlin",
      "addr:country": "DE",
      "addr:postcode": "10997",
      "addr:suburb": "Kreuzberg",
      "contact:phone": "+49 30 61709080",
      "name": "Rewe",
      "opening_hours": "Mo-Sa 07:00-24:00",
      "shop": "supermarket",
      "wheelchair": "yes"
    }
  },
  {
    "type": "node",
    "id": 392352484,
    "lat": 52.4512743,
    "lon": 13.5087505,
    "tags": {
      "addr:city": "Berlin",
      "addr:country": "DE",
      "addr:housenumber": "33",
      "addr:postcode": "12487",
      "addr:street": "Sterndamm",
      "addr:suburb": "Johannisthal",
      "brand": "Netto Marken-Discount AG & Co. KG",
      "name": "Netto Marken-Discount",
      "shop": "supermarket",
      "wheelchair": "yes"
    }
  },
  {
    "type": "node",
    "id": 392683175,
    "lat": 52.4859875,
    "lon": 13.4571207,
    "tags": {
      "addr:city": "Berlin",
      "addr:country": "DE",
      "addr:housenumber": "49",
      "addr:postcode": "12435",
      "addr:street": "Kiefholzstraße",
      "addr:suburb": "Alt-Treptow",
      "name": "ALDI",
      "opening_hours": "Mo-Sa 08:00-20:00",
      "operator": "ALDI Nord",
      "shop": "supermarket",
      "wheelchair": "yes"
    }
  },
  {
    "type": "node",
    "id": 392683176,
    "lat": 52.4855808,
    "lon": 13.4568606,
    "tags": {
      "addr:city": "Berlin",
      "addr:housenumber": "50",
      "addr:postcode": "12435",
      "addr:street": "Kiefholzstraße",
      "drink:club-mate": "retail",
      "name": "REWE",
      "opening_hours": "Mo-Sa 07:00-22:00",
      "shop": "supermarket",
      "wheelchair": "yes"
    }
  },
  {
    "type": "node",
    "id": 395053992,
    "lat": 52.4528593,
    "lon": 13.1430094,
    "tags": {
      "addr:city": "Berlin",
      "addr:housenumber": "1 A",
      "addr:postcode": "14089",
      "addr:street": "Sakrower Landstraße",
      "name": "Rewe",
      "old_name": "Bolle",
      "opening_hours": "Mo-Sa 07:00-22:00",
      "operator": "Korthals & Nestler Warenhandelsges. mbH",
      "shop": "supermarket",
      "wheelchair": "yes"
    }
  },
  {
    "type": "node",
    "id": 400911487,
    "lat": 52.6134414,
    "lon": 13.4340105,
    "tags": {
      "name": "Penny",
      "shop": "supermarket",
      "wheelchair": "yes"
    }
  },
  {
    "type": "node",
    "id": 410135899,
    "lat": 52.4905527,
    "lon": 13.4342449,
    "tags": {
      "name": "Edeka Vaupel",
      "opening_hours": "Mo-Fr 08:00-20:00; Sa 08:00-20:00",
      "operator": "Vaupel GmbH",
      "shop": "supermarket",
      "wheelchair": "limited"
    }
  },
  {
    "type": "node",
    "id": 410339501,
    "lat": 52.4985119,
    "lon": 13.3035537,
    "tags": {
      "name": "Penny",
      "shop": "supermarket"
    }
  },
  {
    "type": "node",
    "id": 410500908,
    "lat": 52.5499503,
    "lon": 13.577706,
    "tags": {
      "name": "Penny",
      "shop": "supermarket",
      "wheelchair": "yes"
    }
  },
  {
    "type": "node",
    "id": 410506348,
    "lat": 52.5568679,
    "lon": 13.5715607,
    "tags": {
      "name": "Penny",
      "shop": "supermarket",
      "wheelchair": "yes"
    }
  },
  {
    "type": "node",
    "id": 410749696,
    "lat": 52.6173677,
    "lon": 13.4863442,
    "tags": {
      "name": "Netto",
      "shop": "supermarket",
      "wheelchair": "yes"
    }
  },
  {
    "type": "node",
    "id": 412196333,
    "lat": 52.4123748,
    "lon": 13.5717456,
    "tags": {
      "addr:city": "Berlin",
      "addr:housenumber": "1",
      "addr:postcode": "12524",
      "addr:street": "Bruno-Taut-Straße",
      "addr:suburb": "Bohnsdorf",
      "contact:phone": "+49 30 67891350",
      "drink:club-mate": "retail",
      "name": "Rewe",
      "opening_hours": "Mo-Sa 07:00-22:00; PH off",
      "shop": "supermarket",
      "website": "https://www.rewe.de/marktseite.html?wwident=1350078",
      "wheelchair": "yes"
    }
  },
  {
    "type": "node",
    "id": 412410746,
    "lat": 52.4858781,
    "lon": 13.356934,
    "tags": {
      "addr:city": "Berlin",
      "addr:country": "DE",
      "addr:housenumber": "1-2",
      "addr:postcode": "10827",
      "addr:street": "Kaiser-Wilhelm-Platz",
      "addr:suburb": "Schöneberg",
      "contact:phone": "+49 30 7814437",
      "level": "0",
      "name": "Vitalia",
      "opening_hours": "Mo-Sa 09:00-20:00",
      "organic": "only",
      "shop": "supermarket",
      "website": "https://www.vitalia-reformhaus.de/marktfinder/vitalia-reformhaus-berlin-kaiser-wilhelm-platz",
      "wheelchair": "yes"
    }
  },
  {
    "type": "node",
    "id": 413275520,
    "lat": 52.4581997,
    "lon": 13.5773187,
    "tags": {
      "drink:club-mate": "retail",
      "level": "-1",
      "name": "REWE",
      "operator": "REWE",
      "phone": "+493065070763",
      "shop": "supermarket",
      "wheelchair": "yes"
    }
  },
  {
    "type": "node",
    "id": 417018788,
    "lat": 52.5533011,
    "lon": 13.4459428,
    "tags": {
      "addr:city": "Berlin",
      "addr:housenumber": "112-114",
      "addr:postcode": "13086",
      "addr:street": "Pistoriusstraße",
      "addr:suburb": "Weißensee",
      "name": "Edeka",
      "opening_hours": "Mo-Sa 07:00-21:00",
      "operator": "Edeka Schlender",
      "phone": "+49 30 92094019",
      "shop": "supermarket",
      "website": "http://www.edeka-schlender.de",
      "wheelchair": "yes"
    }
  },
  {
    "type": "node",
    "id": 417019740,
    "lat": 52.5497931,
    "lon": 13.4588764,
    "tags": {
      "addr:city": "Berlin",
      "addr:country": "DE",
      "addr:housenumber": "100",
      "addr:postcode": "13088",
      "addr:street": "Berliner Allee",
      "addr:suburb": "Weißensee",
      "name": "Edeka",
      "opening_hours": "Mo-Sa 07:00-20:00",
      "shop": "supermarket",
      "website": "www.edeka.de",
      "wheelchair": "limited"
    }
  },
  {
    "type": "node",
    "id": 417021873,
    "lat": 52.5465901,
    "lon": 13.4429996,
    "tags": {
      "addr:city": "Berlin",
      "addr:country": "DE",
      "addr:housenumber": "107-109",
      "addr:postcode": "10409",
      "addr:street": "Ostseestraße",
      "name": "Edeka Ostseestraße",
      "opening_hours": "Mo-Sa 08:00-22:00",
      "operator": "Edeka",
      "shop": "supermarket",
      "wheelchair": "yes"
    }
  },
  {
    "type": "node",
    "id": 417360249,
    "lat": 52.533316,
    "lon": 13.4522613,
    "tags": {
      "addr:city": "Berlin",
      "addr:country": "DE",
      "addr:housenumber": "128b",
      "addr:postcode": "10407",
      "addr:street": "Storkower Straße",
      "addr:suburb": "Prenzlauer Berg",
      "brand": "Netto Marken-Discount AG & Co. KG",
      "contact:phone": "+49 30 40043187",
      "contact:website": "http://www.netto-online.de/angebote/handzettel.php?id=74551",
      "name": "Netto Marken-Discount",
      "opening_hours": "Mo-Sa 07:00-20:00; Su,PH off",
      "ref": "74551",
      "shop": "supermarket",
      "wheelchair": "yes"
    }
  },
  {
    "type": "node",
    "id": 418632158,
    "lat": 52.5421045,
    "lon": 13.4198499,
    "tags": {
      "name": "Edeka Nah und Gut",
      "opening_hours": "Mo-Sa 07:30-23:00",
      "operator": "Mike Bülow",
      "shop": "supermarket",
      "wheelchair": "limited"
    }
  },
  {
    "type": "node",
    "id": 418632161,
    "lat": 52.5426761,
    "lon": 13.4184505,
    "tags": {
      "drink:club-mate": "retail",
      "name": "Edeka nah und gut",
      "opening_hours": "Mo-Sa 08:00-22:00",
      "operator": "Edeka",
      "shop": "supermarket",
      "wheelchair": "limited"
    }
  },
  {
    "type": "node",
    "id": 419545765,
    "lat": 52.5511375,
    "lon": 13.3833679,
    "tags": {
      "addr:city": "Berlin",
      "addr:country": "DE",
      "addr:housenumber": "60",
      "addr:postcode": "13357",
      "addr:street": "Badstraße",
      "addr:suburb": "Gesundbrunnen",
      "name": "Lidl",
      "opening_hours": "Mo-Sa 08:00-21:00",
      "shop": "supermarket",
      "wheelchair": "yes"
    }
  },
  {
    "type": "node",
    "id": 419545767,
    "lat": 52.5513946,
    "lon": 13.3828975,
    "tags": {
      "addr:city": "Berlin",
      "addr:country": "DE",
      "addr:housenumber": "57",
      "addr:postcode": "13357",
      "addr:street": "Badstraße",
      "addr:suburb": "Gesundbrunnen",
      "contact:phone": "030 89048499",
      "name": "REWE",
      "shoes": "supermarket",
      "shop": "supermarket",
      "website": "http://www.kaisers.de",
      "wheelchair": "yes"
    }
  },
  {
    "type": "node",
    "id": 423485548,
    "lat": 52.4971196,
    "lon": 13.4240914,
    "tags": {
      "addr:city": "Berlin",
      "addr:country": "DE",
      "addr:housenumber": "37",
      "addr:postcode": "10999",
      "addr:street": "Reichenberger Straße",
      "addr:suburb": "Kreuzberg",
      "brand": "LPG",
      "contact:website": "http://www.lpg-biomarkt.de/",
      "fair_trade": "yes",
      "name": "LPG Biomarkt",
      "opening_hours": "Mo-Sa 08:00-21:00",
      "organic": "yes",
      "shop": "supermarket",
      "toilets:wheelchair": "no",
      "wheelchair": "limited"
    }
  },
  {
    "type": "node",
    "id": 427043045,
    "lat": 52.5586866,
    "lon": 13.3749078,
    "tags": {
      "addr:city": "Berlin",
      "addr:country": "DE",
      "addr:housenumber": "32-32a",
      "addr:postcode": "13359",
      "addr:street": "Drontheimer Straße",
      "addr:suburb": "Gesundbrunnen",
      "name": "Norma",
      "opening_hours": "Mo-Sa 08:00-21:00",
      "operator": "Norma",
      "shop": "supermarket",
      "wheelchair": "yes"
    }
  },
  {
    "type": "node",
    "id": 428142496,
    "lat": 52.5328501,
    "lon": 13.3500694,
    "tags": {
      "addr:city": "Berlin",
      "addr:country": "DE",
      "addr:housenumber": "48",
      "addr:postcode": "10559",
      "addr:street": "Rathenower Straße",
      "addr:suburb": "Moabit",
      "name": "Edeka",
      "operator": "...nah und gut",
      "shop": "supermarket",
      "wheelchair": "yes"
    }
  },
  {
    "type": "node",
    "id": 428142582,
    "lat": 52.5330951,
    "lon": 13.3454332,
    "tags": {
      "name": "Penny",
      "opening_hours": "Mo-Sa 08:00-21:00",
      "operator": "Penny",
      "shop": "supermarket",
      "wheelchair": "yes"
    }
  },
  {
    "type": "node",
    "id": 432828844,
    "lat": 52.538928,
    "lon": 13.3271006,
    "tags": {
      "name": "Aldi",
      "shop": "supermarket",
      "source": "survey",
      "wheelchair": "yes"
    }
  },
  {
    "type": "node",
    "id": 437190622,
    "lat": 52.5189624,
    "lon": 13.409903,
    "tags": {
      "addr:city": "Berlin",
      "addr:country": "DE",
      "addr:housenumber": "5",
      "addr:postcode": "10178",
      "addr:street": "Rathausstraße",
      "addr:suburb": "Mitte",
      "brand": "Netto Marken-Discount AG & Co. KG",
      "name": "Netto Marken-Discount",
      "opening_hours": "Mo-Sa 07:00-22:00",
      "phone": "+49 30 20089463",
      "ref:vatin": "DE133822409",
      "shop": "supermarket",
      "website": "http://www.netto-online.de",
      "wheelchair": "limited"
    }
  },
  {
    "type": "node",
    "id": 438150623,
    "lat": 52.5032011,
    "lon": 13.4914705,
    "tags": {
      "entrance": "yes",
      "name": "Mini Markt",
      "name:en": "Mini Market",
      "name:ru": "Продуктовый магазин",
      "shop": "supermarket",
      "wheelchair": "limited"
    }
  },
  {
    "type": "node",
    "id": 438385035,
    "lat": 52.4787864,
    "lon": 13.3084451,
    "tags": {
      "name": "Netto",
      "opening_hours": "Mo-Sa 08:00-20:00",
      "shop": "supermarket"
    }
  },
  {
    "type": "node",
    "id": 439506670,
    "lat": 52.5006163,
    "lon": 13.4231403,
    "tags": {
      "addr:city": "Berlin",
      "addr:country": "DE",
      "addr:housenumber": "15",
      "addr:postcode": "10999",
      "addr:street": "Oranienstraße",
      "addr:suburb": "Kreuzberg",
      "contact:email": "krautis@kraut-und-rüben-berlin.de",
      "contact:phone": "+49 30 6141075",
      "contact:website": "http://www.kraut-und-rueben-berlin.de/",
      "identity": "solidarity_economy",
      "mode_of_organisation:hierarchy_chef": "flat_hierarchy",
      "name": "Kraut & Rüben",
      "opening_hours": "Mo-Fr 09:00-19:00; Sa 09:00-16:00",
      "operator": "Kraut & Rüben Lebensmittelvertriebs GmbH",
      "organic": "only",
      "phone": "+49306141075",
      "production_input:work:payment": "equal",
      "regional": "yes",
      "shop": "supermarket",
      "source": "Solikon 2015",
      "start_date": "1978",
      "wheelchair": "no"
    }
  },
  {
    "type": "node",
    "id": 439771184,
    "lat": 52.5029258,
    "lon": 13.4136926,
    "tags": {
      "addr:city": "Berlin",
      "addr:country": "DE",
      "addr:housenumber": "47a",
      "addr:postcode": "10969",
      "addr:street": "Oranienstraße",
      "addr:suburb": "Kreuzberg",
      "name": "Brandenburger Landwaren",
      "organic": "only",
      "shop": "supermarket",
      "wheelchair": "limited"
    }
  },
  {
    "type": "node",
    "id": 440805106,
    "lat": 52.5267978,
    "lon": 13.3317124,
    "tags": {
      "name": "Penny",
      "opening_hours": "Mo-Sa 07:00-23:30",
      "shop": "supermarket",
      "wheelchair": "yes"
    }
  },
  {
    "type": "node",
    "id": 440805109,
    "lat": 52.5253795,
    "lon": 13.3418473,
    "tags": {
      "addr:city": "Berlin",
      "addr:country": "DE",
      "addr:housenumber": "86A",
      "addr:postcode": "10555",
      "addr:street": "Alt-Moabit",
      "addr:suburb": "Moabit",
      "brand": "Netto Marken-Discount AG & Co. KG",
      "contact:phone": "+4994713200",
      "contact:website": "http://www.netto-online.de",
      "name": "Netto Marken-Discount",
      "opening_hours": "Mo-Sa 07:00-22:00",
      "shop": "supermarket",
      "wheelchair": "no"
    }
  },
  {
    "type": "node",
    "id": 441514942,
    "lat": 52.4768901,
    "lon": 13.4261918,
    "tags": {
      "addr:housenumber": "55",
      "addr:postcode": "12049",
      "addr:street": "Hermannstraße",
      "name": "Lidl",
      "opening_hours": "Mo-Sa 08:00-22:00",
      "shop": "supermarket",
      "website": "http://www.lidl.de/filialen/berlin-neukoelln/neukoelln-hermannstr-55.html",
      "wheelchair": "yes"
    }
  },
  {
    "type": "node",
    "id": 441531298,
    "lat": 52.4741002,
    "lon": 13.4274975,
    "tags": {
      "addr:city": "Berlin",
      "addr:housenumber": "72",
      "addr:postcode": "12049",
      "addr:street": "Hermannstraße",
      "name": "ALDI",
      "opening_hours": "Mo-Sa 08:00-21:00",
      "shop": "supermarket",
      "wheelchair": "yes"
    }
  },
  {
    "type": "node",
    "id": 441734595,
    "lat": 52.4816182,
    "lon": 13.4334593,
    "tags": {
      "addr:housenumber": "1",
      "addr:postcode": "12053",
      "addr:street": "Flughafenstraße",
      "name": "Lidl",
      "opening_hours": "Mo-Sa 08:00-21:00",
      "shop": "supermarket",
      "wheelchair": "no"
    }
  },
  {
    "type": "node",
    "id": 442390306,
    "lat": 52.4565369,
    "lon": 13.3834395,
    "tags": {
      "addr:city": "Berlin",
      "addr:country": "DE",
      "addr:housenumber": "218",
      "addr:postcode": "12099",
      "addr:street": "Tempelhofer Damm",
      "addr:suburb": "Tempelhof",
      "contact:email": "info@tadioaderfia.de",
      "contact:fax": "+49 30 7528281",
      "contact:phone": "+49 30 25042580",
      "contact:website": "http://www.tastehellas.de",
      "name": "Taste Hellas",
      "opening_hours": "Mo-Fr 10:00-20:00; Sa 10:00-18:00",
      "operator": "Nikolaos Theodorou",
      "shop": "supermarket",
      "wheelchair": "no"
    }
  },
  {
    "type": "node",
    "id": 442392122,
    "lat": 52.4510775,
    "lon": 13.3852947,
    "tags": {
      "addr:city": "Berlin",
      "addr:country": "DE",
      "addr:housenumber": "19",
      "addr:postcode": "12109",
      "addr:street": "Mariendorfer Damm",
      "addr:suburb": "Mariendorf",
      "brand": "Netto Marken-Discount AG & Co. KG",
      "name": "Netto Marken-Discount",
      "opening_hours": "Mo-Sa 07:00-20:00",
      "shop": "supermarket",
      "wheelchair": "yes"
    }
  },
  {
    "type": "node",
    "id": 442394340,
    "lat": 52.4453501,
    "lon": 13.386125,
    "tags": {
      "addr:city": "Berlin",
      "addr:country": "DE",
      "addr:housenumber": "81",
      "addr:postcode": "12109",
      "addr:street": "Mariendorfer Damm",
      "addr:suburb": "Mariendorf",
      "name": "Edeka Prang",
      "opening_hours": "Mo-Sa 08:00-22:00",
      "operator": "Katja Prang e.K.",
      "shop": "supermarket",
      "website": "http://mein.edeka.de/eh/de/minden_hannover/6608/",
      "wheelchair": "yes"
    }
  },
  {
    "type": "node",
    "id": 445820967,
    "lat": 52.4876478,
    "lon": 13.2645738,
    "tags": {
      "addr:city": "Berlin",
      "addr:country": "DE",
      "addr:housenumber": "2",
      "addr:postcode": "14193",
      "addr:street": "Trabener Straße",
      "addr:suburb": "Grunewald",
      "name": "Edeka",
      "shop": "supermarket",
      "wheelchair": "limited"
    }
  },
  {
    "type": "node",
    "id": 445821398,
    "lat": 52.4425881,
    "lon": 13.4319561,
    "tags": {
      "name": "Norma",
      "opening_hours": "Mo-Sa 08:00-20:00",
      "shop": "supermarket",
      "wheelchair": "yes"
    }
  },
  {
    "type": "node",
    "id": 447962689,
    "lat": 52.5615636,
    "lon": 13.2138439,
    "tags": {
      "addr:city": "Berlin",
      "addr:country": "DE",
      "addr:housenumber": "56",
      "addr:postcode": "13587",
      "addr:street": "Rauchstraße",
      "addr:suburb": "Hakenfelde",
      "name": "Rewe",
      "opening_hours": "Mo-Sa 07:00-22:00",
      "phone": "+49 30 33308114",
      "shop": "supermarket",
      "website": "http://www.rewe.de",
      "wheelchair": "yes"
    }
  },
  {
    "type": "node",
    "id": 448591011,
    "lat": 52.5591073,
    "lon": 13.4062472,
    "tags": {
      "addr:city": "Berlin",
      "addr:country": "DE",
      "addr:housenumber": "28",
      "addr:postcode": "13187",
      "addr:street": "Tiroler Straße",
      "addr:suburb": "Pankow",
      "name": "Norma",
      "opening_hours": "Mo-Sa 08:00-21:00",
      "phone": "+49 1805 911102",
      "shop": "supermarket",
      "website": "http://norma-online.de",
      "wheelchair": "no"
    }
  },
  {
    "type": "node",
    "id": 448814806,
    "lat": 52.5260753,
    "lon": 13.422959,
    "tags": {
      "addr:city": "Berlin",
      "addr:country": "DE",
      "addr:housenumber": "18",
      "addr:postcode": "10249",
      "addr:street": "Barnimstraße",
      "addr:suburb": "Friedrichshain",
      "name": "Edeka Barnimstraße",
      "opening_hours": "Mo-Sa 07:00-22:00",
      "phone": "+49 30 24729176",
      "shop": "supermarket",
      "wheelchair": "yes"
    }
  },
  {
    "type": "node",
    "id": 449994504,
    "lat": 52.4564251,
    "lon": 13.3217052,
    "tags": {
      "addr:city": "Berlin",
      "addr:country": "DE",
      "addr:housenumber": "3",
      "addr:postcode": "12165",
      "addr:street": "Albrechtstraße",
      "addr:suburb": "Steglitz",
      "contact:fax": "+49 30 79740951",
      "contact:phone": "+49 30 79740524",
      "name": "Edeka",
      "opening_hours": "Mo-Fr 08:00-24:00; Sa 08:00-23:30; PH off",
      "operator": "Edeka aktiv markt",
      "shop": "supermarket",
      "wheelchair": "yes"
    }
  },
  {
    "type": "node",
    "id": 452002193,
    "lat": 52.4653103,
    "lon": 13.3831859,
    "tags": {
      "addr:city": "Berlin",
      "addr:country": "DE",
      "addr:housenumber": "31-33",
      "addr:postcode": "12103",
      "addr:street": "Alt-Tempelhof",
      "addr:suburb": "Tempelhof",
      "alt_name": "EDEKA",
      "name": "nah und gut Brabanski",
      "organic": "only",
      "shop": "supermarket",
      "wheelchair": "limited"
    }
  },
  {
    "type": "node",
    "id": 452448907,
    "lat": 52.5209672,
    "lon": 13.4868605,
    "tags": {
      "name": "Lidl",
      "shop": "supermarket",
      "toilets:wheelchair": "no",
      "wheelchair": "yes"
    }
  },
  {
    "type": "node",
    "id": 453394268,
    "lat": 52.6369381,
    "lon": 13.4914504,
    "tags": {
      "name": "Netto Marken-Discount",
      "opening_hours": "Mo-Sa 07:00-21:00",
      "shop": "supermarket",
      "wheelchair": "yes"
    }
  },
  {
    "type": "node",
    "id": 460331941,
    "lat": 52.5105082,
    "lon": 13.3907436,
    "tags": {
      "addr:city": "Berlin",
      "addr:country": "DE",
      "addr:housenumber": "100",
      "addr:postcode": "10117",
      "addr:street": "Leipziger Straße",
      "addr:suburb": "Mitte",
      "name": "Rewe",
      "opening_hours": "Mo-Fr 07:00-00:00; Sa 07:00-23:30",
      "phone": "+49 30 20165770",
      "shop": "supermarket",
      "wheelchair": "yes"
    }
  },
  {
    "type": "node",
    "id": 465318626,
    "lat": 52.4822154,
    "lon": 13.4316168,
    "tags": {
      "name": "Kaufland",
      "opening_hours": "Mo-Sa 07:00-22:00",
      "operator": "Vertriebsgesellschaft Kaufland Warenhandel Berlin GmbH & Co. KG",
      "phone": "+49306273070",
      "shop": "supermarket",
      "website": "https://www.kaufland.de",
      "wheelchair": "yes"
    }
  },
  {
    "type": "node",
    "id": 465318633,
    "lat": 52.4850931,
    "lon": 13.4337327,
    "tags": {
      "brand": "Netto Marken-Discount AG & Co. KG",
      "name": "Netto Marken-Discount",
      "opening_hours": "Mo-Sa 07:00-22:00",
      "shop": "supermarket",
      "wheelchair": "yes"
    }
  },
  {
    "type": "node",
    "id": 469876091,
    "lat": 52.5125099,
    "lon": 13.304883,
    "tags": {
      "addr:city": "Berlin",
      "addr:country": "DE",
      "addr:housenumber": "32-33",
      "addr:postcode": "10585",
      "addr:street": "Wilmersdorfer Straße",
      "addr:suburb": "Charlottenburg",
      "name": "Penny",
      "opening_hours": "Mo-Sa 07:00-22:00",
      "phone": "+49 221 20199959",
      "shop": "supermarket",
      "website": "http://www.penny.de",
      "wheelchair": "yes"
    }
  },
  {
    "type": "node",
    "id": 470471637,
    "lat": 52.431028,
    "lon": 13.4560181,
    "tags": {
      "name": "ALDI",
      "shop": "supermarket",
      "wheelchair": "yes"
    }
  },
  {
    "type": "node",
    "id": 471301175,
    "lat": 52.4089489,
    "lon": 13.5720983,
    "tags": {
      "addr:city": "Berlin",
      "addr:country": "DE",
      "addr:housenumber": "14",
      "addr:postcode": "12526",
      "addr:street": "Buntzelstraße",
      "addr:suburb": "Bohnsdorf",
      "drink:club-mate": "retail",
      "name": "Edeka",
      "opening_hours": "Mo-Sa 07:00-21:00",
      "operator": "EDEKA Hüntemann",
      "phone": "+49-30-67804706",
      "shop": "supermarket",
      "wheelchair": "yes"
    }
  },
  {
    "type": "node",
    "id": 472501535,
    "lat": 52.503966,
    "lon": 13.4727963,
    "tags": {
      "name": "Kaufland",
      "opening_hours": "Mo-Sa 07:00-22:00",
      "shop": "supermarket",
      "wheelchair": "yes"
    }
  },
  {
    "type": "node",
    "id": 473611934,
    "lat": 52.5585627,
    "lon": 13.3858039,
    "tags": {
      "addr:city": "Berlin",
      "addr:country": "DE",
      "addr:housenumber": "55-56",
      "addr:postcode": "13359",
      "addr:street": "Prinzenallee",
      "addr:suburb": "Gesundbrunnen",
      "name": "Penny",
      "shop": "supermarket",
      "wheelchair": "yes"
    }
  },
  {
    "type": "node",
    "id": 475897824,
    "lat": 52.4968269,
    "lon": 13.419876,
    "tags": {
      "addr:city": "Berlin",
      "addr:country": "DE",
      "addr:housenumber": "16a",
      "addr:postcode": "10999",
      "addr:street": "Kottbusser Straße",
      "addr:suburb": "Kreuzberg",
      "contact:website": "http://www.lidl.de",
      "name": "Lidl",
      "opening_hours": "Mo-Sa 08:00-22:00",
      "shop": "supermarket",
      "wheelchair": "yes"
    }
  },
  {
    "type": "node",
    "id": 481148748,
    "lat": 52.4189357,
    "lon": 13.1575422,
    "tags": {
      "addr:city": "Berlin",
      "addr:country": "DE",
      "addr:housenumber": "56/57",
      "addr:postcode": "14109",
      "addr:street": "Königstraße",
      "addr:suburb": "Wannsee",
      "name": "ALDI",
      "phone": "+49 201 8593",
      "shop": "supermarket",
      "website": "http://www.aldi-nord.de/",
      "wheelchair": "yes"
    }
  },
  {
    "type": "node",
    "id": 482585492,
    "lat": 52.4917705,
    "lon": 13.3547337,
    "tags": {
      "addr:city": "Berlin",
      "addr:country": "DE",
      "addr:housenumber": "69",
      "addr:postcode": "10781",
      "addr:street": "Barbarossastraße",
      "addr:suburb": "Schöneberg",
      "name": "Edeka",
      "opening_hours": "Mo-Sa 07:00-22:00",
      "operator": "Edeka Schrader",
      "phone": "+49 30 2162940",
      "shop": "supermarket",
      "website": "http://mein.edeka.de/eh/de/minden_hannover/481/m2000",
      "wheelchair": "yes"
    }
  },
  {
    "type": "node",
    "id": 482647762,
    "lat": 52.5619496,
    "lon": 13.3656789,
    "tags": {
      "name": "Lidl",
      "shop": "supermarket",
      "wheelchair": "yes"
    }
  },
  {
    "type": "node",
    "id": 487485823,
    "lat": 52.458523,
    "lon": 13.318817,
    "tags": {
      "addr:city": "Berlin",
      "addr:country": "DE",
      "addr:housenumber": "38a",
      "addr:postcode": "12163",
      "addr:street": "Rothenburgstraße",
      "addr:suburb": "Steglitz",
      "name": "Lidl",
      "operator": "Lidl",
      "shop": "supermarket",
      "wheelchair": "yes"
    }
  },
  {
    "type": "node",
    "id": 491542788,
    "lat": 52.5921336,
    "lon": 13.3829575,
    "tags": {
      "name": "Penny",
      "shop": "supermarket",
      "wheelchair": "yes"
    }
  },
  {
    "type": "node",
    "id": 492443106,
    "lat": 52.4794954,
    "lon": 13.3106567,
    "tags": {
      "addr:city": "Berlin",
      "addr:housenumber": "23a",
      "addr:postcode": "14197",
      "addr:street": "Mecklenburgische Straße",
      "addr:suburb": "Wilmersdorf",
      "name": "Aldi",
      "opening_hours": "Mo-Sa 08:00-22:00",
      "shop": "supermarket",
      "wheelchair": "yes"
    }
  },
  {
    "type": "node",
    "id": 498839307,
    "lat": 52.547982,
    "lon": 13.3916155,
    "tags": {
      "addr:city": "Berlin",
      "addr:country": "DE",
      "addr:housenumber": "105-109",
      "addr:postcode": "13355",
      "addr:street": "Brunnenstraße",
      "addr:suburb": "Gesundbrunnen",
      "contact:phone": "+49 30 467777960",
      "drink:club-mate": "yes",
      "level": "1",
      "name": "Kaufland",
      "opening_hours": "Mo-Fr 07:00-24:00; Sa 07:00-23:30",
      "shop": "supermarket",
      "website": "http://www.kaufland.de/",
      "wheelchair": "yes"
    }
  },
  {
    "type": "node",
    "id": 499637619,
    "lat": 52.459073,
    "lon": 13.3232009,
    "tags": {
      "addr:city": "Berlin",
      "addr:country": "DE",
      "addr:housenumber": "98",
      "addr:postcode": "12163",
      "addr:street": "Schloßstraße",
      "addr:suburb": "Steglitz",
      "contact:phone": "+49 30 79302780",
      "name": "Edeka",
      "opening_hours": "Mo-Sa 08:00-22:00",
      "operator": "Janine Gross eK",
      "shoes": "supermarket",
      "shop": "supermarket",
      "website": "http://www.edeka.de",
      "wheelchair": "yes"
    }
  },
  {
    "type": "node",
    "id": 500057367,
    "lat": 52.4675024,
    "lon": 13.4418626,
    "tags": {
      "addr:city": "Berlin",
      "addr:country": "DE",
      "addr:housenumber": "242",
      "addr:postcode": "12057",
      "addr:street": "Karl-Marx-Straße",
      "addr:suburb": "Neukölln",
      "cuisine": "asian",
      "entrance": "main",
      "name": "Asia Supermarkt",
      "opening_hours": "Mo-Sa 09:00-19:30",
      "shop": "supermarket"
    }
  },
  {
    "type": "node",
    "id": 504156978,
    "lat": 52.4728082,
    "lon": 13.3077983,
    "tags": {
      "name": "Rewe",
      "shop": "supermarket",
      "wheelchair": "yes"
    }
  },
  {
    "type": "node",
    "id": 505980713,
    "lat": 52.493177,
    "lon": 13.3829709,
    "tags": {
      "name": "Rewe City",
      "opening_hours": "Mo - Fr 7:00-23:59, Sa 7:00-23:30",
      "shop": "supermarket",
      "wheelchair": "yes",
      "wheelchair:description": "Hindernisse in Gängen möglich."
    }
  },
  {
    "type": "node",
    "id": 505996681,
    "lat": 52.4939285,
    "lon": 13.3839687,
    "tags": {
      "name": "NP",
      "opening_hours": "Mo-Fr 07:00-24:00; Sa 07:00-23:30",
      "shop": "supermarket",
      "url": "http://www.niedrig-preis.de/index.php?id=319&setmarkt=170",
      "wheelchair": "limited"
    }
  },
  {
    "type": "node",
    "id": 506967293,
    "lat": 52.4394784,
    "lon": 13.2157779,
    "tags": {
      "name": "Rewe",
      "opening_hours": "Mo-Sa 07:00-22:00",
      "shop": "supermarket",
      "wheelchair": "limited"
    }
  },
  {
    "type": "node",
    "id": 513956597,
    "lat": 52.5148655,
    "lon": 13.4659341,
    "tags": {
      "addr:city": "Berlin",
      "addr:country": "DE",
      "addr:housenumber": "57-59",
      "addr:postcode": "10247",
      "addr:street": "Frankfurter Allee",
      "addr:suburb": "Friedrichshain",
      "brand": "Netto Marken-Discount AG & Co. KG",
      "name": "Netto Marken-Discount",
      "opening_hours": "Mo-Sa 07:00-22:00",
      "phone": "+498002000015",
      "shop": "supermarket",
      "website": "http://www.netto-online.de",
      "wheelchair": "yes"
    }
  },
  {
    "type": "node",
    "id": 519175242,
    "lat": 52.4418135,
    "lon": 13.2665658,
    "tags": {
      "addr:city": "Berlin",
      "addr:country": "DE",
      "addr:housenumber": "278",
      "addr:postcode": "14169",
      "addr:street": "Clayallee",
      "addr:suburb": "Zehlendorf",
      "name": "Lidl",
      "shop": "supermarket",
      "source": "Geoportal Berlin / k5_2012_sw_sued.zip",
      "website": "http://www.lidl.de",
      "wheelchair": "yes"
    }
  },
  {
    "type": "node",
    "id": 521227908,
    "lat": 52.5325693,
    "lon": 13.429371,
    "tags": {
      "addr:city": "Berlin",
      "addr:country": "DE",
      "addr:housenumber": "31",
      "addr:postcode": "10405",
      "addr:street": "Greifswalder Straße",
      "addr:suburb": "Prenzlauer Berg",
      "name": "denn's Biomarkt",
      "organic": "only",
      "shop": "supermarket",
      "wheelchair": "yes"
    }
  },
  {
    "type": "node",
    "id": 529709164,
    "lat": 52.47136,
    "lon": 13.3371917,
    "tags": {
      "addr:city": "Berlin",
      "addr:country": "DE",
      "addr:housenumber": "6",
      "addr:postcode": "12159",
      "addr:street": "Fregestraße",
      "addr:suburb": "Friedenau",
      "name": "Edeka",
      "opening_hours": "Mo-Sa 07:00-20:00",
      "phone": "+49308511139",
      "shop": "supermarket",
      "website": "http://www.edeka.de",
      "wheelchair": "no"
    }
  },
  {
    "type": "node",
    "id": 532438697,
    "lat": 52.4093176,
    "lon": 13.3810307,
    "tags": {
      "name": "Kaufland",
      "opening_hours": "Mo-Sa 07:00-22:00",
      "shop": "supermarket",
      "website": "http://www.kaufland.de/Home/index.jsp",
      "wheelchair": "yes"
    }
  },
  {
    "type": "node",
    "id": 534878184,
    "lat": 52.4876067,
    "lon": 13.2990759,
    "tags": {
      "addr:city": "Berlin",
      "addr:country": "DE",
      "addr:housenumber": "50a",
      "addr:postcode": "14199",
      "addr:street": "Hohenzollerndamm",
      "addr:suburb": "Schmargendorf",
      "contact:phone": "+49 30 8231751",
      "contact:website": "http://www.nahundfrisch.de/",
      "name": "Markant Nah & Frisch",
      "opening_hours": "Mo-Sa 08:00-20:00",
      "operator": "E. Berger",
      "shop": "supermarket",
      "wheelchair": "yes"
    }
  },
  {
    "type": "node",
    "id": 537588089,
    "lat": 52.5370808,
    "lon": 13.2862093,
    "tags": {
      "name": "Netto Marken-Discount",
      "shop": "supermarket"
    }
  },
  {
    "type": "node",
    "id": 537753668,
    "lat": 52.4716429,
    "lon": 13.3350328,
    "tags": {
      "addr:city": "Berlin",
      "addr:country": "DE",
      "addr:housenumber": "17",
      "addr:postcode": "12159",
      "addr:street": "Lauterstraße",
      "addr:suburb": "Friedenau",
      "brand": "Netto Marken-Discount AG & Co. KG",
      "name": "Netto Marken-Discount",
      "opening_hours": "Mo-Sa 07:00-22:00",
      "phone": "+49 800 2000015",
      "shop": "supermarket",
      "survey:date": "2013-08-05",
      "website": "https://www.netto-online.de",
      "wheelchair": "yes"
    }
  },
  {
    "type": "node",
    "id": 538246975,
    "lat": 52.5064708,
    "lon": 13.3129972,
    "tags": {
      "addr:city": "Berlin",
      "addr:country": "DE",
      "addr:housenumber": "42",
      "addr:postcode": "10625",
      "addr:street": "Kantstraße",
      "addr:suburb": "Charlottenburg",
      "contact:phone": "0303151726",
      "cuisine": "mediterranean",
      "name": "Mitte Meer",
      "opening_hours": "Mo-Th 10:00-20:00; Fr-Sa 09:00-20:00",
      "phone": "+49 30 3151726",
      "shop": "supermarket",
      "website": "http://www.mitte-meer.de/",
      "wheelchair": "limited",
      "wheelchair:description": "keine Kundentoilette"
    }
  },
  {
    "type": "node",
    "id": 544381902,
    "lat": 52.480678,
    "lon": 13.4265489,
    "tags": {
      "name": "Penny",
      "shop": "supermarket",
      "wheelchair": "yes"
    }
  },
  {
    "type": "node",
    "id": 546677899,
    "lat": 52.5483391,
    "lon": 13.5039694,
    "tags": {
      "level": "1",
      "name": "ALDI",
      "shop": "supermarket",
      "wheelchair": "yes"
    }
  },
  {
    "type": "node",
    "id": 549739056,
    "lat": 52.5145499,
    "lon": 13.4764343,
    "tags": {
      "name": "Aldi",
      "opening_hours": "Mo-Sa 08:00-21:00",
      "operator": "Aldi Nord",
      "shop": "supermarket",
      "wheelchair": "yes"
    }
  },
  {
    "type": "node",
    "id": 549739435,
    "lat": 52.5144053,
    "lon": 13.4772664,
    "tags": {
      "name": "Real",
      "opening_hours": "Mo-Sa 08:00-22:00",
      "shop": "supermarket",
      "wheelchair": "yes"
    }
  },
  {
    "type": "node",
    "id": 550113673,
    "lat": 52.5565324,
    "lon": 13.4245088,
    "tags": {
      "addr:city": "Berlin",
      "addr:housenumber": "47",
      "addr:postcode": "13189",
      "addr:street": "Eschengraben",
      "level": "0",
      "name": "Rewe",
      "opening_hours": "Mo-Sa 07:00-22:00",
      "operator": "REWE Markt GmbH",
      "shop": "supermarket",
      "wheelchair": "yes"
    }
  },
  {
    "type": "node",
    "id": 550113674,
    "lat": 52.5565272,
    "lon": 13.4241319,
    "tags": {
      "brand": "Netto ApS & Co. KG",
      "level": "0",
      "name": "Netto",
      "opening_hours": "Mo-Sa 08:00-21:00",
      "operator": "Netto ApS & Co. KG / Dansk Supermarked A/S",
      "shop": "supermarket",
      "wheelchair": "yes"
    }
  },
  {
    "type": "node",
    "id": 552357231,
    "lat": 52.5752904,
    "lon": 13.2837641,
    "tags": {
      "name": "Edeka",
      "opening_hours": "Mo-Sa 07:00-22:00",
      "shop": "supermarket",
      "wheelchair": "yes"
    }
  },
  {
    "type": "node",
    "id": 553086206,
    "lat": 52.542251,
    "lon": 13.4906301,
    "tags": {
      "name": "Netto Marken-Discount",
      "shop": "supermarket",
      "wheelchair": "limited"
    }
  },
  {
    "type": "node",
    "id": 560903128,
    "lat": 52.4559449,
    "lon": 13.3871535,
    "tags": {
      "addr:city": "Berlin",
      "addr:country": "DE",
      "addr:housenumber": "227",
      "addr:postcode": "12099",
      "addr:street": "Tempelhofer Damm",
      "addr:suburb": "Tempelhof",
      "name": "E center",
      "opening_hours": "Mo-Sa 08:00-21:00",
      "operator": "EDEKA",
      "shoes": "supermarket",
      "shop": "supermarket",
      "wheelchair": "yes"
    }
  },
  {
    "type": "node",
    "id": 564605044,
    "lat": 52.5021469,
    "lon": 13.4312004,
    "tags": {
      "name": "Aldi",
      "opening_hours": "Mo-Sa 08:00-20:00",
      "operator": "Aldi Nord",
      "shop": "supermarket",
      "wheelchair": "limited"
    }
  },
  {
    "type": "node",
    "id": 564645779,
    "lat": 52.4903009,
    "lon": 13.3750045,
    "tags": {
      "addr:city": "Berlin",
      "addr:country": "DE",
      "addr:housenumber": "39",
      "addr:postcode": "10965",
      "addr:street": "Kreuzbergstraße",
      "addr:suburb": "Schöneberg",
      "name": "Aldi",
      "opening_hours": "Mo-Sa 08:00-21:00",
      "shop": "supermarket",
      "website": "http://www.aldi-nord.de",
      "wheelchair": "yes"
    }
  },
  {
    "type": "node",
    "id": 565034858,
    "lat": 52.5108418,
    "lon": 13.2918673,
    "tags": {
      "addr:city": "Berlin",
      "addr:country": "DE",
      "addr:housenumber": "26",
      "addr:postcode": "14059",
      "addr:street": "Wundtstraße",
      "addr:suburb": "Charlottenburg",
      "name": "Rewe City",
      "opening_hours": "Mo-Fr 07:00-24:00; Sa 07:00-23:30",
      "shop": "supermarket",
      "wheelchair": "yes"
    }
  },
  {
    "type": "node",
    "id": 565649878,
    "lat": 52.523162,
    "lon": 13.4041367,
    "tags": {
      "addr:city": "Berlin",
      "addr:country": "DE",
      "addr:housenumber": "145-147",
      "addr:postcode": "10178",
      "addr:street": "Dircksenstraße",
      "addr:suburb": "Mitte",
      "contact:website": "http://biocompany.de",
      "name": "Bio Company",
      "opening_hours": "Mo-Sa 08:00-21:00",
      "organic": "only",
      "shop": "supermarket",
      "wheelchair": "limited"
    }
  },
  {
    "type": "node",
    "id": 577383675,
    "lat": 52.550805,
    "lon": 13.3838851,
    "tags": {
      "addr:city": "Berlin",
      "addr:country": "DE",
      "addr:housenumber": "59",
      "addr:postcode": "13357",
      "addr:street": "Badstraße",
      "addr:suburb": "Gesundbrunnen",
      "contact:website": "http://www.bolu-berlin.de/",
      "name": "Bolu",
      "opening_hours": "Mo-Fr 07:00-20:00; Sa 07:00-18:00; Su,PH off",
      "shop": "supermarket",
      "wheelchair": "yes"
    }
  },
  {
    "type": "node",
    "id": 582748267,
    "lat": 52.5302683,
    "lon": 13.4113098,
    "tags": {
      "name": "denn's Biomarkt",
      "organic": "only",
      "shop": "supermarket",
      "wheelchair": "yes"
    }
  },
  {
    "type": "node",
    "id": 582854288,
    "lat": 52.4191394,
    "lon": 13.3683653,
    "tags": {
      "name": "Aima",
      "shop": "supermarket",
      "website": "http://www.aima-supermarkt.de/marienfelde-marienfelder-allee-75-79/"
    }
  },
  {
    "type": "node",
    "id": 583760234,
    "lat": 52.5693828,
    "lon": 13.4372073,
    "tags": {
      "addr:city": "Berlin",
      "addr:country": "DE",
      "addr:housenumber": "2",
      "addr:postcode": "13089",
      "addr:street": "Rothenbachstraße",
      "name": "Netto Marken-Discount",
      "shop": "supermarket",
      "source": "memory",
      "wheelchair": "yes"
    }
  },
  {
    "type": "node",
    "id": 587835276,
    "lat": 52.5397947,
    "lon": 13.2963562,
    "tags": {
      "name": "Netto",
      "opening_hours": "Mo-Th 08:00-21:00; Fr-Sa 08:00-22:00",
      "shop": "supermarket",
      "website": "http://www.netto.de/internet/nettod/stores.nsf/va_lookupforr/06338000",
      "wheelchair": "limited"
    }
  },
  {
    "type": "node",
    "id": 587835279,
    "lat": 52.5392837,
    "lon": 13.3001834,
    "tags": {
      "addr:city": "Berlin",
      "addr:country": "DE",
      "addr:housenumber": "225",
      "addr:postcode": "13627",
      "addr:street": "Heckerdamm",
      "addr:suburb": "Charlottenburg-Nord",
      "name": "Edeka",
      "opening_hours": "Mo-Sa 08:00-22:00",
      "payment:coins": "yes",
      "payment:credit_cards": "yes",
      "payment:debit_cards": "yes",
      "shop": "supermarket",
      "wheelchair": "yes"
    }
  },
  {
    "type": "node",
    "id": 599932843,
    "lat": 52.4990259,
    "lon": 13.430248,
    "tags": {
      "addr:city": "Berlin",
      "addr:country": "DE",
      "addr:housenumber": "46",
      "addr:postcode": "10997",
      "addr:street": "Skalitzer Straße",
      "addr:suburb": "Kreuzberg",
      "contact:phone": "+49 30 611 60 41",
      "contact:website": "http://www.himmelerde.de",
      "name": "Himmel & Erde",
      "opening_hours": "Mo-Fr 07:30-19:00; Sa 07:30-16:00; Su 09:00-12:00",
      "organic": "only",
      "shop": "supermarket",
      "wheelchair": "no"
    }
  },
  {
    "type": "node",
    "id": 602528045,
    "lat": 52.6076495,
    "lon": 13.43059,
    "tags": {
      "name": "NETTO",
      "shop": "supermarket",
      "toilets:wheelchair": "no",
      "wheelchair": "yes"
    }
  },
  {
    "type": "node",
    "id": 602528055,
    "lat": 52.6105021,
    "lon": 13.4315153,
    "tags": {
      "name": "Netto Marken-Discount",
      "shop": "supermarket",
      "wheelchair": "yes"
    }
  },
  {
    "type": "node",
    "id": 602610690,
    "lat": 52.5696161,
    "lon": 13.4947789,
    "tags": {
      "addr:city": "Berlin",
      "addr:country": "DE",
      "addr:housenumber": "26",
      "addr:postcode": "13051",
      "addr:street": "Ribnitzer Straße",
      "addr:suburb": "Neu-Hohenschönhausen",
      "name": "Rewe",
      "opening_hours": "Mo-Fr 07:00-24:00; Sa 07:00-23:30",
      "phone": "+49 30 96204060",
      "shop": "supermarket",
      "website": "http://www.rewe.de/",
      "wheelchair": "yes"
    }
  },
  {
    "type": "node",
    "id": 607953121,
    "lat": 52.5471528,
    "lon": 13.4093889,
    "tags": {
      "addr:city": "Berlin",
      "addr:country": "DE",
      "addr:housenumber": "19",
      "addr:postcode": "10437",
      "addr:street": "Gleimstraße",
      "addr:suburb": "Prenzlauer Berg",
      "contact:phone": "+49 30 4496032",
      "name": "Edeka",
      "opening_hours": "Mo-Fr 08:00-21:00; Sa 08:00-16:00; Su,PH off",
      "operator": "Evelin Kurschus",
      "shop": "supermarket",
      "wheelchair": "no"
    }
  },
  {
    "type": "node",
    "id": 610198674,
    "lat": 52.4039973,
    "lon": 13.4055572,
    "tags": {
      "name": "Rewe",
      "opening_hours": "Mo-Sa 07:00-22:00",
      "shop": "supermarket"
    }
  },
  {
    "type": "node",
    "id": 610199981,
    "lat": 52.392013,
    "lon": 13.4028107,
    "tags": {
      "addr:city": "Berlin",
      "addr:country": "DE",
      "addr:postcode": "12305",
      "addr:street": "John-Locke-Straße",
      "addr:suburb": "Lichtenrade",
      "name": "Norma",
      "opening_hours": "Mo-Sa 08:00-20:00",
      "shop": "supermarket"
    }
  },
  {
    "type": "node",
    "id": 615607311,
    "lat": 52.4858952,
    "lon": 13.4214884,
    "tags": {
      "name": "ALDI",
      "opening_hours": "Mo-Sa 08:00-20:00",
      "shop": "supermarket",
      "wheelchair": "yes"
    }
  },
  {
    "type": "node",
    "id": 616298762,
    "lat": 52.5096929,
    "lon": 13.3059755,
    "tags": {
      "addr:city": "Berlin",
      "addr:country": "DE",
      "addr:housenumber": "126",
      "addr:postcode": "10627",
      "addr:street": "Wilmersdorfer Straße",
      "addr:suburb": "Charlottenburg",
      "contact:phone": "+49 800 4353361",
      "contact:website": "http://www.lidl.de/filialen/berlin-charlottenburg-wilmersdorf/charlottenburg-wilmersdorfer-str-126.html",
      "name": "Lidl",
      "note": "Geprüft am 27. Dez 2015",
      "opening_hours": "Mo-Sa 08:00-21:00; Su off",
      "operator": "Lidl Vertriebs-GmbH & Co. KG (Großbeeren)",
      "shop": "supermarket",
      "wheelchair": "yes"
    }
  },
  {
    "type": "node",
    "id": 618269382,
    "lat": 52.5134646,
    "lon": 13.5222835,
    "tags": {
      "name": "Penny",
      "opening_hours": "Mo-Sa 07:00-21:00",
      "operator": "Rewe Group",
      "shop": "supermarket",
      "wheelchair": "yes"
    }
  },
  {
    "type": "node",
    "id": 620704393,
    "lat": 52.4809259,
    "lon": 13.4387009,
    "tags": {
      "name": "Lidl",
      "opening_hours": "Mo-Sa 08:00-22:00",
      "operator": "Lidl",
      "shop": "supermarket",
      "wheelchair": "yes"
    }
  },
  {
    "type": "node",
    "id": 621170687,
    "lat": 52.4379589,
    "lon": 13.4468721,
    "tags": {
      "name": "Russia",
      "opening_hours": "Mo-Fr 08:00-19:00; Sa 08:00-17:00",
      "shop": "supermarket"
    }
  },
  {
    "type": "node",
    "id": 621903300,
    "lat": 52.5054126,
    "lon": 13.3930804,
    "tags": {
      "addr:city": "Berlin",
      "addr:country": "DE",
      "addr:housenumber": "1",
      "addr:postcode": "10969",
      "addr:street": "Charlottenstraße",
      "addr:suburb": "Kreuzberg",
      "name": "Lidl",
      "opening_hours": "Mo-Sa 07:00-21:00",
      "payment:girocard": "yes",
      "payment:maestro": "yes",
      "payment:mastercard": "yes",
      "payment:visa": "yes",
      "shop": "supermarket",
      "source": "survey",
      "wheelchair": "yes"
    }
  },
  {
    "type": "node",
    "id": 624360866,
    "lat": 52.4908116,
    "lon": 13.3356896,
    "tags": {
      "addr:city": "Berlin",
      "addr:country": "DE",
      "addr:housenumber": "27",
      "addr:postcode": "10717",
      "addr:street": "Jenaer Straße",
      "addr:suburb": "Wilmersdorf",
      "name": "Edeka Jenaer Straße",
      "opening_hours": "Mo-Sa 07:00-22:00",
      "operator": "Edeka",
      "shop": "supermarket",
      "wheelchair": "limited"
    }
  },
  {
    "type": "node",
    "id": 626859062,
    "lat": 52.5501398,
    "lon": 13.3859287,
    "tags": {
      "addr:city": "Berlin",
      "addr:country": "DE",
      "addr:housenumber": "9",
      "addr:postcode": "13357",
      "addr:street": "Badstraße",
      "addr:suburb": "Gesundbrunnen",
      "contact:phone": "+49 30 49760404",
      "name": "Eurogida",
      "opening_hours": "Mo-Sa 07:00-21:00",
      "shop": "supermarket",
      "website": "http://www.eurogida.de/de/filiale_badstrasse.php",
      "wheelchair": "limited"
    }
  },
  {
    "type": "node",
    "id": 632432196,
    "lat": 52.4991725,
    "lon": 13.4970016,
    "tags": {
      "addr:city": "Berlin",
      "addr:country": "DE",
      "addr:housenumber": "4 - 6",
      "addr:postcode": "10319",
      "addr:street": "Sewanstraße",
      "name": "Kaufland",
      "opening_hours": "Mo-Fr 07:00-24:00; Sa 07:00-23:30",
      "operator": "Schwarz-Gruppe",
      "phone": "+49302520000",
      "shop": "supermarket",
      "website": "http://www.kaufland.de",
      "wheelchair": "yes"
    }
  },
  {
    "type": "node",
    "id": 634912181,
    "lat": 52.4759438,
    "lon": 13.2901303,
    "tags": {
      "name": "Edeka",
      "opening_hours": "Mo-Sa 07:00-22:00",
      "shop": "supermarket",
      "wheelchair": "yes"
    }
  },
  {
    "type": "node",
    "id": 635791562,
    "lat": 52.4997073,
    "lon": 13.5074501,
    "tags": {
      "addr:city": "Berlin",
      "addr:housenumber": "32",
      "addr:postcode": "10319",
      "addr:street": "Volkradstraße",
      "name": "REWE",
      "opening_hours": "Mo-Sa 07:00-22:00",
      "operator": "Marcel Engels",
      "shop": "supermarket",
      "wheelchair": "yes"
    }
  },
  {
    "type": "node",
    "id": 636865176,
    "lat": 52.4263404,
    "lon": 13.4645036,
    "tags": {
      "addr:housenumber": "50",
      "addr:postcode": "12353",
      "addr:street": "Lipschitzallee",
      "name": "Lidl",
      "opening_hours": "Mo-Sa 08:00-22:00",
      "shop": "supermarket",
      "wheelchair": "yes"
    }
  },
  {
    "type": "node",
    "id": 646601544,
    "lat": 52.549409,
    "lon": 13.3884219,
    "tags": {
      "level": "-1",
      "name": "ALDI",
      "shop": "supermarket",
      "wheelchair": "yes"
    }
  },
  {
    "type": "node",
    "id": 652049372,
    "lat": 52.4243322,
    "lon": 13.4363525,
    "tags": {
      "name": "Edeka",
      "operator": "nah und gut",
      "shop": "supermarket",
      "wheelchair": "limited"
    }
  },
  {
    "type": "node",
    "id": 652570198,
    "lat": 52.5035654,
    "lon": 13.4036492,
    "tags": {
      "addr:city": "Berlin",
      "addr:country": "DE",
      "addr:housenumber": "38-40",
      "addr:postcode": "10969",
      "addr:street": "Ritterstraße",
      "addr:suburb": "Kreuzberg",
      "contact:phone": "+49 30 61403900",
      "name": "Edeka",
      "operator": "EDEKA Minden-Hannover Stiftung & Co. KG",
      "shop": "supermarket",
      "website": "https://www.edeka.de",
      "wheelchair": "no"
    }
  },
  {
    "type": "node",
    "id": 653287041,
    "lat": 52.5433967,
    "lon": 13.4428789,
    "tags": {
      "addr:city": "Berlin",
      "addr:country": "DE",
      "addr:housename": "Mühlenbergcenter",
      "addr:housenumber": "90",
      "addr:postcode": "10409",
      "addr:street": "Greifswalder Straße",
      "addr:suburb": "Prenzlauer Berg",
      "name": "Netto",
      "opening_hours": "Mo-Sa 08:00-21:00",
      "shop": "supermarket",
      "website": "http://www.netto.de",
      "wheelchair": "yes"
    }
  },